{
"type": "FeatureCollection",
"crs": { "type": "name", "properties": { "name": "urn:ogc:def:crs:OGC:1.3:CRS84" } },
                                                                                
"features": [
{ "type": "Feature", "properties": { "CVEGEO": "1206600350221800", "CVE_ENT": "12", "CVE_MUN": "066", "CVE_LOC": "0035", "CVE_AGEB": "0221", "NOMGEO": "Tepeyahualco" }, "geometry": { "type": "Point", "coordinates": [ -98.672334649999954, 17.522681719999117 ] } },
{ "type": "Feature", "properties": { "CVEGEO": "1206600420217800", "CVE_ENT": "12", "CVE_MUN": "066", "CVE_LOC": "0042", "CVE_AGEB": "0217", "NOMGEO": "Chicahuastepec" }, "geometry": { "type": "Point", "coordinates": [ -98.713650109999932, 17.587579709999119 ] } },
{ "type": "Feature", "properties": { "CVEGEO": "1206600450240800", "CVE_ENT": "12", "CVE_MUN": "066", "CVE_LOC": "0045", "CVE_AGEB": "0240", "NOMGEO": "Mexcala" }, "geometry": { "type": "Point", "coordinates": [ -98.53833092, 17.536916819999131 ] } },
{ "type": "Feature", "properties": { "CVEGEO": "1206600480240800", "CVE_ENT": "12", "CVE_MUN": "066", "CVE_LOC": "0048", "CVE_AGEB": "0240", "NOMGEO": "Tehuixtla" }, "geometry": { "type": "Point", "coordinates": [ -98.563751909999908, 17.491031879999092 ] } },
{ "type": "Feature", "properties": { "CVEGEO": "1206600690255800", "CVE_ENT": "12", "CVE_MUN": "066", "CVE_LOC": "0069", "CVE_AGEB": "0255", "NOMGEO": "Pueblo Viejo" }, "geometry": { "type": "Point", "coordinates": [ -98.575574919999909, 17.426373999999111 ] } },
{ "type": "Feature", "properties": { "CVEGEO": "1206600700221800", "CVE_ENT": "12", "CVE_MUN": "066", "CVE_LOC": "0070", "CVE_AGEB": "0221", "NOMGEO": "Teteltzi" }, "geometry": { "type": "Point", "coordinates": [ -98.641667679999912, 17.484698849999077 ] } },
{ "type": "Feature", "properties": { "CVEGEO": "1206601050221800", "CVE_ENT": "12", "CVE_MUN": "066", "CVE_LOC": "0105", "CVE_AGEB": "0221", "NOMGEO": "Las Cañaditas" }, "geometry": { "type": "Point", "coordinates": [ -98.621181479999919, 17.546249819999147 ] } },
{ "type": "Feature", "properties": { "CVEGEO": "1206601060221800", "CVE_ENT": "12", "CVE_MUN": "066", "CVE_LOC": "0106", "CVE_AGEB": "0221", "NOMGEO": "Rancho los Cascabeles" }, "geometry": { "type": "Point", "coordinates": [ -98.647802649999946, 17.53388557999914 ] } },
{ "type": "Feature", "properties": { "CVEGEO": "1206601070221800", "CVE_ENT": "12", "CVE_MUN": "066", "CVE_LOC": "0107", "CVE_AGEB": "0221", "NOMGEO": "Ninguno" }, "geometry": { "type": "Point", "coordinates": [ -98.625556749999959, 17.617189719999136 ] } },
{ "type": "Feature", "properties": { "CVEGEO": "1206601080221800", "CVE_ENT": "12", "CVE_MUN": "066", "CVE_LOC": "0108", "CVE_AGEB": "0221", "NOMGEO": "Ninguno" }, "geometry": { "type": "Point", "coordinates": [ -98.647223629999971, 17.507197369999087 ] } },
{ "type": "Feature", "properties": { "CVEGEO": "1206601090221800", "CVE_ENT": "12", "CVE_MUN": "066", "CVE_LOC": "0109", "CVE_AGEB": "0221", "NOMGEO": "Ninguno" }, "geometry": { "type": "Point", "coordinates": [ -98.619077769999947, 17.525035119999114 ] } },
{ "type": "Feature", "properties": { "CVEGEO": "1206601100221800", "CVE_ENT": "12", "CVE_MUN": "066", "CVE_LOC": "0110", "CVE_AGEB": "0221", "NOMGEO": "Peor es Nada" }, "geometry": { "type": "Point", "coordinates": [ -98.613600179999949, 17.541216879999102 ] } },
{ "type": "Feature", "properties": { "CVEGEO": "1206601130221800", "CVE_ENT": "12", "CVE_MUN": "066", "CVE_LOC": "0113", "CVE_AGEB": "0221", "NOMGEO": "Tlatlanexo" }, "geometry": { "type": "Point", "coordinates": [ -98.635834949999932, 17.625800319999119 ] } },
{ "type": "Feature", "properties": { "CVEGEO": "1206601140221800", "CVE_ENT": "12", "CVE_MUN": "066", "CVE_LOC": "0114", "CVE_AGEB": "0221", "NOMGEO": "Tonalapa" }, "geometry": { "type": "Point", "coordinates": [ -98.619722659999965, 17.510530289999135 ] } },
{ "type": "Feature", "properties": { "CVEGEO": "1206601150221800", "CVE_ENT": "12", "CVE_MUN": "066", "CVE_LOC": "0115", "CVE_AGEB": "0221", "NOMGEO": "Torrentlán Uno" }, "geometry": { "type": "Point", "coordinates": [ -98.643890689999935, 17.586636399999101 ] } },
{ "type": "Feature", "properties": { "CVEGEO": "1206601160221800", "CVE_ENT": "12", "CVE_MUN": "066", "CVE_LOC": "0116", "CVE_AGEB": "0221", "NOMGEO": "Tototépetl" }, "geometry": { "type": "Point", "coordinates": [ -98.640001749999939, 17.617467599999134 ] } },
{ "type": "Feature", "properties": { "CVEGEO": "1206601500240800", "CVE_ENT": "12", "CVE_MUN": "066", "CVE_LOC": "0150", "CVE_AGEB": "0240", "NOMGEO": "Capapochotl (El Pochote)" }, "geometry": { "type": "Point", "coordinates": [ -98.5683437799999, 17.505197179999076 ] } },
{ "type": "Feature", "properties": { "CVEGEO": "1206601510240800", "CVE_ENT": "12", "CVE_MUN": "066", "CVE_LOC": "0151", "CVE_AGEB": "0240", "NOMGEO": "Cuatlachomolco" }, "geometry": { "type": "Point", "coordinates": [ -98.555096769999935, 17.48667851999911 ] } },
{ "type": "Feature", "properties": { "CVEGEO": "1206601640255800", "CVE_ENT": "12", "CVE_MUN": "066", "CVE_LOC": "0164", "CVE_AGEB": "0255", "NOMGEO": "Coajtepec" }, "geometry": { "type": "Point", "coordinates": [ -98.568268629999949, 17.486232879999111 ] } },
{ "type": "Feature", "properties": { "CVEGEO": "1206601650255800", "CVE_ENT": "12", "CVE_MUN": "066", "CVE_LOC": "0165", "CVE_AGEB": "0255", "NOMGEO": "Virgen de Juquila" }, "geometry": { "type": "Point", "coordinates": [ -98.520862859999923, 17.380723019999152 ] } },
{ "type": "Feature", "properties": { "CVEGEO": "1206601660255800", "CVE_ENT": "12", "CVE_MUN": "066", "CVE_LOC": "0166", "CVE_AGEB": "0255", "NOMGEO": "Río Azul" }, "geometry": { "type": "Point", "coordinates": [ -98.506205539999911, 17.370757739999107 ] } },
{ "type": "Feature", "properties": { "CVEGEO": "1206601670221800", "CVE_ENT": "12", "CVE_MUN": "066", "CVE_LOC": "0167", "CVE_AGEB": "0221", "NOMGEO": "Paraje Teacalco" }, "geometry": { "type": "Point", "coordinates": [ -98.614483459999931, 17.539376549999101 ] } },
{ "type": "Feature", "properties": { "CVEGEO": "1206601680221800", "CVE_ENT": "12", "CVE_MUN": "066", "CVE_LOC": "0168", "CVE_AGEB": "0221", "NOMGEO": "Colonia Monte Hermón" }, "geometry": { "type": "Point", "coordinates": [ -98.603879219999911, 17.546035719999175 ] } },
{ "type": "Feature", "properties": { "CVEGEO": "1206601020221800", "CVE_ENT": "12", "CVE_MUN": "066", "CVE_LOC": "0102", "CVE_AGEB": "0221", "NOMGEO": "Cuechatlajco" }, "geometry": { "type": "Point", "coordinates": [ -98.606473049999963, 17.520862109999129 ] } },
{ "type": "Feature", "properties": { "CVEGEO": "1206601340217800", "CVE_ENT": "12", "CVE_MUN": "066", "CVE_LOC": "0134", "CVE_AGEB": "0217", "NOMGEO": "Chitoapa" }, "geometry": { "type": "Point", "coordinates": [ -98.66646832, 17.618178319999103 ] } },
{ "type": "Feature", "properties": { "CVEGEO": "1206601420217800", "CVE_ENT": "12", "CVE_MUN": "066", "CVE_LOC": "0142", "CVE_AGEB": "0217", "NOMGEO": "Tlacoatopilco" }, "geometry": { "type": "Point", "coordinates": [ -98.674573249999938, 17.618390719999088 ] } },
{ "type": "Feature", "properties": { "CVEGEO": "1206600570217800", "CVE_ENT": "12", "CVE_MUN": "066", "CVE_LOC": "0057", "CVE_AGEB": "0217", "NOMGEO": "Tenexteyo" }, "geometry": { "type": "Point", "coordinates": [ -98.717778539999969, 17.608053399999132 ] } },
{ "type": "Feature", "properties": { "CVEGEO": "1206600440255800", "CVE_ENT": "12", "CVE_MUN": "066", "CVE_LOC": "0044", "CVE_AGEB": "0255", "NOMGEO": "Las Mesas" }, "geometry": { "type": "Point", "coordinates": [ -98.532733969999938, 17.475824229999123 ] } },
{ "type": "Feature", "properties": { "CVEGEO": "1206601790221800", "CVE_ENT": "12", "CVE_MUN": "066", "CVE_LOC": "0179", "CVE_AGEB": "0221", "NOMGEO": "San José [Fraccionamiento]" }, "geometry": { "type": "Point", "coordinates": [ -98.601933339999917, 17.525949999999085 ] } },
{ "type": "Feature", "properties": { "CVEGEO": "1206601810236800", "CVE_ENT": "12", "CVE_MUN": "066", "CVE_LOC": "0181", "CVE_AGEB": "0236", "NOMGEO": "La Independencia" }, "geometry": { "type": "Point", "coordinates": [ -98.54935, 17.564730549999091 ] } },
{ "type": "Feature", "properties": { "CVEGEO": "1206601820221800", "CVE_ENT": "12", "CVE_MUN": "066", "CVE_LOC": "0182", "CVE_AGEB": "0221", "NOMGEO": "Ninguno" }, "geometry": { "type": "Point", "coordinates": [ -98.623244449999945, 17.61245833999914 ] } },
{ "type": "Feature", "properties": { "CVEGEO": "1206601830221800", "CVE_ENT": "12", "CVE_MUN": "066", "CVE_LOC": "0183", "CVE_AGEB": "0221", "NOMGEO": "El Mirador [Subestación Eléctrica Tlapa]" }, "geometry": { "type": "Point", "coordinates": [ -98.628627779999974, 17.541308339999116 ] } },
{ "type": "Feature", "properties": { "CVEGEO": "1206601850221800", "CVE_ENT": "12", "CVE_MUN": "066", "CVE_LOC": "0185", "CVE_AGEB": "0221", "NOMGEO": "Ninguno" }, "geometry": { "type": "Point", "coordinates": [ -98.622025, 17.52533054999909 ] } },
{ "type": "Feature", "properties": { "CVEGEO": "1206600270240800", "CVE_ENT": "12", "CVE_MUN": "066", "CVE_LOC": "0027", "CVE_AGEB": "0240", "NOMGEO": "Totomochapa" }, "geometry": { "type": "Point", "coordinates": [ -98.459105079999944, 17.541778139999149 ] } },
{ "type": "Feature", "properties": { "CVEGEO": "1206600550217800", "CVE_ENT": "12", "CVE_MUN": "066", "CVE_LOC": "0055", "CVE_AGEB": "0217", "NOMGEO": "Tehuchicoloya" }, "geometry": { "type": "Point", "coordinates": [ -98.700610349999948, 17.561884429999125 ] } },
{ "type": "Feature", "properties": { "CVEGEO": "1206600580217800", "CVE_ENT": "12", "CVE_MUN": "066", "CVE_LOC": "0058", "CVE_AGEB": "0217", "NOMGEO": "Totoapan" }, "geometry": { "type": "Point", "coordinates": [ -98.649834549999937, 17.573539969999121 ] } },
{ "type": "Feature", "properties": { "CVEGEO": "1206600610221800", "CVE_ENT": "12", "CVE_MUN": "066", "CVE_LOC": "0061", "CVE_AGEB": "0221", "NOMGEO": "Teoztokiahuac" }, "geometry": { "type": "Point", "coordinates": [ -98.651390339999949, 17.493309449999085 ] } },
{ "type": "Feature", "properties": { "CVEGEO": "1206600620221800", "CVE_ENT": "12", "CVE_MUN": "066", "CVE_LOC": "0062", "CVE_AGEB": "0221", "NOMGEO": "Torrentlán" }, "geometry": { "type": "Point", "coordinates": [ -98.624445479999935, 17.579136769999131 ] } },
{ "type": "Feature", "properties": { "CVEGEO": "1206600660255800", "CVE_ENT": "12", "CVE_MUN": "066", "CVE_LOC": "0066", "CVE_AGEB": "0255", "NOMGEO": "Amatitlán" }, "geometry": { "type": "Point", "coordinates": [ -98.556182059999955, 17.439664139999138 ] } },
{ "type": "Feature", "properties": { "CVEGEO": "1206600670255800", "CVE_ENT": "12", "CVE_MUN": "066", "CVE_LOC": "0067", "CVE_AGEB": "0255", "NOMGEO": "Cerro del Aire" }, "geometry": { "type": "Point", "coordinates": [ -98.594258219999958, 17.420278539999092 ] } },
{ "type": "Feature", "properties": { "CVEGEO": "1206600680221800", "CVE_ENT": "12", "CVE_MUN": "066", "CVE_LOC": "0068", "CVE_AGEB": "0221", "NOMGEO": "Lucas Godínez González" }, "geometry": { "type": "Point", "coordinates": [ -98.635278579999934, 17.486643119999108 ] } },
{ "type": "Feature", "properties": { "CVEGEO": "1206600900221800", "CVE_ENT": "12", "CVE_MUN": "066", "CVE_LOC": "0090", "CVE_AGEB": "0221", "NOMGEO": "Paraíso Escondido [Balneario]" }, "geometry": { "type": "Point", "coordinates": [ -98.637695379999926, 17.549725969999077 ] } },
{ "type": "Feature", "properties": { "CVEGEO": "1206600910221800", "CVE_ENT": "12", "CVE_MUN": "066", "CVE_LOC": "0091", "CVE_AGEB": "0221", "NOMGEO": "Barranca Grande" }, "geometry": { "type": "Point", "coordinates": [ -98.584869309999959, 17.502971309999111 ] } },
{ "type": "Feature", "properties": { "CVEGEO": "1206600950240800", "CVE_ENT": "12", "CVE_MUN": "066", "CVE_LOC": "0095", "CVE_AGEB": "0240", "NOMGEO": "Ipan Xali" }, "geometry": { "type": "Point", "coordinates": [ -98.5530535499999, 17.509141049999126 ] } },
{ "type": "Feature", "properties": { "CVEGEO": "1206600960255800", "CVE_ENT": "12", "CVE_MUN": "066", "CVE_LOC": "0096", "CVE_AGEB": "0255", "NOMGEO": "Llano de Santa Cruz" }, "geometry": { "type": "Point", "coordinates": [ -98.517773539999936, 17.395259749999099 ] } },
{ "type": "Feature", "properties": { "CVEGEO": "1206600970221800", "CVE_ENT": "12", "CVE_MUN": "066", "CVE_LOC": "0097", "CVE_AGEB": "0221", "NOMGEO": "Vivero el Seminario [El Vivero]" }, "geometry": { "type": "Point", "coordinates": [ -98.625045509999936, 17.539734689999129 ] } },
{ "type": "Feature", "properties": { "CVEGEO": "1206600990221800", "CVE_ENT": "12", "CVE_MUN": "066", "CVE_LOC": "0099", "CVE_AGEB": "0221", "NOMGEO": "Ahueyo" }, "geometry": { "type": "Point", "coordinates": [ -98.617909749999939, 17.507004769999092 ] } },
{ "type": "Feature", "properties": { "CVEGEO": "1206601000221800", "CVE_ENT": "12", "CVE_MUN": "066", "CVE_LOC": "0100", "CVE_AGEB": "0221", "NOMGEO": "Colonia el Paraíso (El Vado)" }, "geometry": { "type": "Point", "coordinates": [ -98.603351519999975, 17.539861979999134 ] } },
{ "type": "Feature", "properties": { "CVEGEO": "1206601010221800", "CVE_ENT": "12", "CVE_MUN": "066", "CVE_LOC": "0101", "CVE_AGEB": "0221", "NOMGEO": "Cuaxilotitla" }, "geometry": { "type": "Point", "coordinates": [ -98.653057829999923, 17.620523049999104 ] } },
{ "type": "Feature", "properties": { "CVEGEO": "1206601180221800", "CVE_ENT": "12", "CVE_MUN": "066", "CVE_LOC": "0118", "CVE_AGEB": "0221", "NOMGEO": "Zoquitlán" }, "geometry": { "type": "Point", "coordinates": [ -98.623301259999906, 17.544139109999112 ] } },
{ "type": "Feature", "properties": { "CVEGEO": "1206601230202800", "CVE_ENT": "12", "CVE_MUN": "066", "CVE_LOC": "0123", "CVE_AGEB": "0202", "NOMGEO": "Achipiyapa" }, "geometry": { "type": "Point", "coordinates": [ -98.610278419999943, 17.678296449999102 ] } },
{ "type": "Feature", "properties": { "CVEGEO": "1206601250202800", "CVE_ENT": "12", "CVE_MUN": "066", "CVE_LOC": "0125", "CVE_AGEB": "0202", "NOMGEO": "El Carrizal" }, "geometry": { "type": "Point", "coordinates": [ -98.592222109999923, 17.616911679999088 ] } },
{ "type": "Feature", "properties": { "CVEGEO": "1206601260202800", "CVE_ENT": "12", "CVE_MUN": "066", "CVE_LOC": "0126", "CVE_AGEB": "0202", "NOMGEO": "Rancho Alfonso Bernardino Muñoz" }, "geometry": { "type": "Point", "coordinates": [ -98.691948349999933, 17.672742019999127 ] } },
{ "type": "Feature", "properties": { "CVEGEO": "1206601270202800", "CVE_ENT": "12", "CVE_MUN": "066", "CVE_LOC": "0127", "CVE_AGEB": "0202", "NOMGEO": "Xalatlajco" }, "geometry": { "type": "Point", "coordinates": [ -98.656946969999936, 17.678296859999104 ] } },
{ "type": "Feature", "properties": { "CVEGEO": "1206601280217800", "CVE_ENT": "12", "CVE_MUN": "066", "CVE_LOC": "0128", "CVE_AGEB": "0217", "NOMGEO": "Atempa" }, "geometry": { "type": "Point", "coordinates": [ -98.678614349999933, 17.613579289999105 ] } },
{ "type": "Feature", "properties": { "CVEGEO": "1206601520240800", "CVE_ENT": "12", "CVE_MUN": "066", "CVE_LOC": "0152", "CVE_AGEB": "0240", "NOMGEO": "El Tezonteyo" }, "geometry": { "type": "Point", "coordinates": [ -98.554997979999911, 17.497197449999081 ] } },
{ "type": "Feature", "properties": { "CVEGEO": "1206601540240800", "CVE_ENT": "12", "CVE_MUN": "066", "CVE_LOC": "0154", "CVE_AGEB": "0240", "NOMGEO": "Las Mesitas (Paraje Tehuixtla)" }, "geometry": { "type": "Point", "coordinates": [ -98.568481739999967, 17.496749599999085 ] } },
{ "type": "Feature", "properties": { "CVEGEO": "1206601550240800", "CVE_ENT": "12", "CVE_MUN": "066", "CVE_LOC": "0155", "CVE_AGEB": "0240", "NOMGEO": "Paso del Burro" }, "geometry": { "type": "Point", "coordinates": [ -98.534617489999917, 17.544708579999149 ] } },
{ "type": "Feature", "properties": { "CVEGEO": "1206601560240800", "CVE_ENT": "12", "CVE_MUN": "066", "CVE_LOC": "0156", "CVE_AGEB": "0240", "NOMGEO": "Rancho Anastacio Avelino" }, "geometry": { "type": "Point", "coordinates": [ -98.539927399999939, 17.543475059999125 ] } },
{ "type": "Feature", "properties": { "CVEGEO": "1206601570255800", "CVE_ENT": "12", "CVE_MUN": "066", "CVE_LOC": "0157", "CVE_AGEB": "0255", "NOMGEO": "Aguapexco" }, "geometry": { "type": "Point", "coordinates": [ -98.554529779999896, 17.477094889999133 ] } },
{ "type": "Feature", "properties": { "CVEGEO": "1206601580255800", "CVE_ENT": "12", "CVE_MUN": "066", "CVE_LOC": "0158", "CVE_AGEB": "0255", "NOMGEO": "El Carrizo" }, "geometry": { "type": "Point", "coordinates": [ -98.549719779999947, 17.466366199999115 ] } },
{ "type": "Feature", "properties": { "CVEGEO": "1206601590255800", "CVE_ENT": "12", "CVE_MUN": "066", "CVE_LOC": "0159", "CVE_AGEB": "0255", "NOMGEO": "La Ciénega Temblada" }, "geometry": { "type": "Point", "coordinates": [ -98.5894432199999, 17.443590199999129 ] } },
{ "type": "Feature", "properties": { "CVEGEO": "1206601600255800", "CVE_ENT": "12", "CVE_MUN": "066", "CVE_LOC": "0160", "CVE_AGEB": "0255", "NOMGEO": "Los Guayabos" }, "geometry": { "type": "Point", "coordinates": [ -98.567235049999951, 17.424625679999149 ] } },
{ "type": "Feature", "properties": { "CVEGEO": "1206601610255800", "CVE_ENT": "12", "CVE_MUN": "066", "CVE_LOC": "0161", "CVE_AGEB": "0255", "NOMGEO": "Ojo de Agua" }, "geometry": { "type": "Point", "coordinates": [ -98.582776019999955, 17.416647519999092 ] } },
{ "type": "Feature", "properties": { "CVEGEO": "1206601620255800", "CVE_ENT": "12", "CVE_MUN": "066", "CVE_LOC": "0162", "CVE_AGEB": "0255", "NOMGEO": "Tlacuitlapa" }, "geometry": { "type": "Point", "coordinates": [ -98.565831649999922, 17.48664267999909 ] } },
{ "type": "Feature", "properties": { "CVEGEO": "1206601760217800", "CVE_ENT": "12", "CVE_MUN": "066", "CVE_LOC": "0176", "CVE_AGEB": "0217", "NOMGEO": "Quiltepetl" }, "geometry": { "type": "Point", "coordinates": [ -98.6825, 17.638333319999152 ] } },
{ "type": "Feature", "properties": { "CVEGEO": "1206601770217800", "CVE_ENT": "12", "CVE_MUN": "066", "CVE_LOC": "0177", "CVE_AGEB": "0217", "NOMGEO": "Tepanco" }, "geometry": { "type": "Point", "coordinates": [ -98.702499219999893, 17.573051709999167 ] } },
{ "type": "Feature", "properties": { "CVEGEO": "1206601780221800", "CVE_ENT": "12", "CVE_MUN": "066", "CVE_LOC": "0178", "CVE_AGEB": "0221", "NOMGEO": "Colonia Xochimilco" }, "geometry": { "type": "Point", "coordinates": [ -98.611525, 17.541138889999132 ] } },
{ "type": "Feature", "properties": { "CVEGEO": "1206601800221800", "CVE_ENT": "12", "CVE_MUN": "066", "CVE_LOC": "0180", "CVE_AGEB": "0221", "NOMGEO": "Plaza San Lucas" }, "geometry": { "type": "Point", "coordinates": [ -98.605855549999902, 17.554813889999156 ] } },
{ "type": "Feature", "properties": { "CVEGEO": "1206601840221800", "CVE_ENT": "12", "CVE_MUN": "066", "CVE_LOC": "0184", "CVE_AGEB": "0221", "NOMGEO": "Tlachinollan" }, "geometry": { "type": "Point", "coordinates": [ -98.612894449999899, 17.537338889999106 ] } },
{ "type": "Feature", "properties": { "CVEGEO": "1206600120240800", "CVE_ENT": "12", "CVE_MUN": "066", "CVE_LOC": "0012", "CVE_AGEB": "0240", "NOMGEO": "Huipila" }, "geometry": { "type": "Point", "coordinates": [ -98.528919199999919, 17.514867719999142 ] } },
{ "type": "Feature", "properties": { "CVEGEO": "1206600720236800", "CVE_ENT": "12", "CVE_MUN": "066", "CVE_LOC": "0072", "CVE_AGEB": "0236", "NOMGEO": "San Miguel Zinacantla" }, "geometry": { "type": "Point", "coordinates": [ -98.541386689999925, 17.56663697999911 ] } },
{ "type": "Feature", "properties": { "CVEGEO": "1206600800255800", "CVE_ENT": "12", "CVE_MUN": "066", "CVE_LOC": "0080", "CVE_AGEB": "0255", "NOMGEO": "Agua Dulce" }, "geometry": { "type": "Point", "coordinates": [ -98.513628199999928, 17.378901679999128 ] } },
{ "type": "Feature", "properties": { "CVEGEO": "1206600810217800", "CVE_ENT": "12", "CVE_MUN": "066", "CVE_LOC": "0081", "CVE_AGEB": "0217", "NOMGEO": "Atempa" }, "geometry": { "type": "Point", "coordinates": [ -98.716501629999939, 17.542596319999088 ] } },
{ "type": "Feature", "properties": { "CVEGEO": "1206600840221800", "CVE_ENT": "12", "CVE_MUN": "066", "CVE_LOC": "0084", "CVE_AGEB": "0221", "NOMGEO": "Tecoloapa" }, "geometry": { "type": "Point", "coordinates": [ -98.613611819999917, 17.606634779999116 ] } },
{ "type": "Feature", "properties": { "CVEGEO": "1206600870236800", "CVE_ENT": "12", "CVE_MUN": "066", "CVE_LOC": "0087", "CVE_AGEB": "0236", "NOMGEO": "Bodega de Fertilizantes Mantis Religiosa" }, "geometry": { "type": "Point", "coordinates": [ -98.548117279999971, 17.574125939999092 ] } },
{ "type": "Feature", "properties": { "CVEGEO": "1206600880221800", "CVE_ENT": "12", "CVE_MUN": "066", "CVE_LOC": "0088", "CVE_AGEB": "0221", "NOMGEO": "Santa Cruz Tierra Blanca" }, "geometry": { "type": "Point", "coordinates": [ -98.608611599999932, 17.597468719999107 ] } },
{ "type": "Feature", "properties": { "CVEGEO": "1206601030221800", "CVE_ENT": "12", "CVE_MUN": "066", "CVE_LOC": "0103", "CVE_AGEB": "0221", "NOMGEO": "El Calvario" }, "geometry": { "type": "Point", "coordinates": [ -98.654724019999918, 17.521085379999096 ] } },
{ "type": "Feature", "properties": { "CVEGEO": "1206601040221800", "CVE_ENT": "12", "CVE_MUN": "066", "CVE_LOC": "0104", "CVE_AGEB": "0221", "NOMGEO": "El Tepetate" }, "geometry": { "type": "Point", "coordinates": [ -98.580832739999906, 17.591913319999101 ] } },
{ "type": "Feature", "properties": { "CVEGEO": "1206601170221800", "CVE_ENT": "12", "CVE_MUN": "066", "CVE_LOC": "0117", "CVE_AGEB": "0221", "NOMGEO": "Xocohapa" }, "geometry": { "type": "Point", "coordinates": [ -98.586543769999949, 17.594714119999111 ] } },
{ "type": "Feature", "properties": { "CVEGEO": "1206601290217800", "CVE_ENT": "12", "CVE_MUN": "066", "CVE_LOC": "0129", "CVE_AGEB": "0217", "NOMGEO": "Colxintla" }, "geometry": { "type": "Point", "coordinates": [ -98.688337019999906, 17.631911459999085 ] } },
{ "type": "Feature", "properties": { "CVEGEO": "1206601320217800", "CVE_ENT": "12", "CVE_MUN": "066", "CVE_LOC": "0132", "CVE_AGEB": "0217", "NOMGEO": "Cuescontitla" }, "geometry": { "type": "Point", "coordinates": [ -98.681947889999904, 17.634966749999112 ] } },
{ "type": "Feature", "properties": { "CVEGEO": "1206601330217800", "CVE_ENT": "12", "CVE_MUN": "066", "CVE_LOC": "0133", "CVE_AGEB": "0217", "NOMGEO": "Chicahuastepec (Petatlán)" }, "geometry": { "type": "Point", "coordinates": [ -98.724728549999938, 17.584974769999111 ] } },
{ "type": "Feature", "properties": { "CVEGEO": "1206601350217800", "CVE_ENT": "12", "CVE_MUN": "066", "CVE_LOC": "0135", "CVE_AGEB": "0217", "NOMGEO": "El Crucero de Ayotzinapa" }, "geometry": { "type": "Point", "coordinates": [ -98.779170079999929, 17.573060029999073 ] } },
{ "type": "Feature", "properties": { "CVEGEO": "1206601360217800", "CVE_ENT": "12", "CVE_MUN": "066", "CVE_LOC": "0136", "CVE_AGEB": "0217", "NOMGEO": "Ixtláhuac" }, "geometry": { "type": "Point", "coordinates": [ -98.665558349999927, 17.634966619999144 ] } },
{ "type": "Feature", "properties": { "CVEGEO": "1206601380217800", "CVE_ENT": "12", "CVE_MUN": "066", "CVE_LOC": "0138", "CVE_AGEB": "0217", "NOMGEO": "Tecoaxi" }, "geometry": { "type": "Point", "coordinates": [ -98.6952817199999, 17.630800479999127 ] } },
{ "type": "Feature", "properties": { "CVEGEO": "1206601390217800", "CVE_ENT": "12", "CVE_MUN": "066", "CVE_LOC": "0139", "CVE_AGEB": "0217", "NOMGEO": "Tecuantepec" }, "geometry": { "type": "Point", "coordinates": [ -98.689448089999956, 17.612190579999133 ] } },
{ "type": "Feature", "properties": { "CVEGEO": "1206601430217800", "CVE_ENT": "12", "CVE_MUN": "066", "CVE_LOC": "0143", "CVE_AGEB": "0217", "NOMGEO": "Zacapepelca" }, "geometry": { "type": "Point", "coordinates": [ -98.663891579999941, 17.621356419999085 ] } },
{ "type": "Feature", "properties": { "CVEGEO": "1206601450236800", "CVE_ENT": "12", "CVE_MUN": "066", "CVE_LOC": "0145", "CVE_AGEB": "0236", "NOMGEO": "Colonia Luis Donaldo Colosio" }, "geometry": { "type": "Point", "coordinates": [ -98.546109109999946, 17.570803399999125 ] } },
{ "type": "Feature", "properties": { "CVEGEO": "1206601460236800", "CVE_ENT": "12", "CVE_MUN": "066", "CVE_LOC": "0146", "CVE_AGEB": "0236", "NOMGEO": "Ninguno" }, "geometry": { "type": "Point", "coordinates": [ -98.570415459999978, 17.563696399999088 ] } },
{ "type": "Feature", "properties": { "CVEGEO": "1206601490236800", "CVE_ENT": "12", "CVE_MUN": "066", "CVE_LOC": "0149", "CVE_AGEB": "0236", "NOMGEO": "Rancho Santiago Castro (Agua Escondida)" }, "geometry": { "type": "Point", "coordinates": [ -98.538674249999943, 17.600805549999166 ] } },
{ "type": "Feature", "properties": { "CVEGEO": "1206601710217800", "CVE_ENT": "12", "CVE_MUN": "066", "CVE_LOC": "0171", "CVE_AGEB": "0217", "NOMGEO": "Cruz Grande Maliaxapa" }, "geometry": { "type": "Point", "coordinates": [ -98.733888889999903, 17.577777779999156 ] } },
{ "type": "Feature", "properties": { "CVEGEO": "1206601720221800", "CVE_ENT": "12", "CVE_MUN": "066", "CVE_LOC": "0172", "CVE_AGEB": "0221", "NOMGEO": "Rancho Zacatzonapa" }, "geometry": { "type": "Point", "coordinates": [ -98.650833339999934, 17.625833339999094 ] } },
{ "type": "Feature", "properties": { "CVEGEO": "1206601730217800", "CVE_ENT": "12", "CVE_MUN": "066", "CVE_LOC": "0173", "CVE_AGEB": "0217", "NOMGEO": "Paraje el Totoapan" }, "geometry": { "type": "Point", "coordinates": [ -98.649166659999977, 17.573333339999081 ] } },
{ "type": "Feature", "properties": { "CVEGEO": "1206601740255800", "CVE_ENT": "12", "CVE_MUN": "066", "CVE_LOC": "0174", "CVE_AGEB": "0255", "NOMGEO": "Vista Hermosa" }, "geometry": { "type": "Point", "coordinates": [ -98.59861111, 17.424166659999095 ] } },
{ "type": "Feature", "properties": { "CVEGEO": "1206601750240800", "CVE_ENT": "12", "CVE_MUN": "066", "CVE_LOC": "0175", "CVE_AGEB": "0240", "NOMGEO": "El Huaje" }, "geometry": { "type": "Point", "coordinates": [ -98.563333339999943, 17.513611109999129 ] } },
{ "type": "Feature", "properties": { "CVEGEO": "1204700280175800", "CVE_ENT": "12", "CVE_MUN": "047", "CVE_LOC": "0028", "CVE_AGEB": "0175", "NOMGEO": "Pericones" }, "geometry": { "type": "Point", "coordinates": [ -99.8908746499999, 18.601577449999109 ] } },
{ "type": "Feature", "properties": { "CVEGEO": "1204700180207800", "CVE_ENT": "12", "CVE_MUN": "047", "CVE_LOC": "0018", "CVE_AGEB": "0207", "NOMGEO": "Los Cuatlix" }, "geometry": { "type": "Point", "coordinates": [ -99.902821459999956, 18.487697709999118 ] } },
{ "type": "Feature", "properties": { "CVEGEO": "1204700540207800", "CVE_ENT": "12", "CVE_MUN": "047", "CVE_LOC": "0054", "CVE_AGEB": "0207", "NOMGEO": "Amate Amarillo" }, "geometry": { "type": "Point", "coordinates": [ -99.843959339999955, 18.490044019999115 ] } },
{ "type": "Feature", "properties": { "CVEGEO": "1204700950207800", "CVE_ENT": "12", "CVE_MUN": "047", "CVE_LOC": "0095", "CVE_AGEB": "0207", "NOMGEO": "Tierra Colorada" }, "geometry": { "type": "Point", "coordinates": [ -99.855038049999948, 18.496933919999098 ] } },
{ "type": "Feature", "properties": { "CVEGEO": "1204701040194800", "CVE_ENT": "12", "CVE_MUN": "047", "CVE_LOC": "0104", "CVE_AGEB": "0194", "NOMGEO": "La Tecama" }, "geometry": { "type": "Point", "coordinates": [ -99.892283449999937, 18.495726649999135 ] } },
{ "type": "Feature", "properties": { "CVEGEO": "1204700160194800", "CVE_ENT": "12", "CVE_MUN": "047", "CVE_LOC": "0016", "CVE_AGEB": "0194", "NOMGEO": "Cuadrilla Nueva" }, "geometry": { "type": "Point", "coordinates": [ -99.908609709999936, 18.50506384999909 ] } },
{ "type": "Feature", "properties": { "CVEGEO": "120470070018A800", "CVE_ENT": "12", "CVE_MUN": "047", "CVE_LOC": "0070", "CVE_AGEB": "018A", "NOMGEO": "Puente Delgado (El Puente)" }, "geometry": { "type": "Point", "coordinates": [ -99.820040749999933, 18.518527689999107 ] } },
{ "type": "Feature", "properties": { "CVEGEO": "1204701060175800", "CVE_ENT": "12", "CVE_MUN": "047", "CVE_LOC": "0106", "CVE_AGEB": "0175", "NOMGEO": "Camino a Tepatulco" }, "geometry": { "type": "Point", "coordinates": [ -99.891709519999907, 18.519361779999141 ] } },
{ "type": "Feature", "properties": { "CVEGEO": "1204700710207800", "CVE_ENT": "12", "CVE_MUN": "047", "CVE_LOC": "0071", "CVE_AGEB": "0207", "NOMGEO": "Puerto de la Marcela" }, "geometry": { "type": "Point", "coordinates": [ -99.8586527099999, 18.536304519999099 ] } },
{ "type": "Feature", "properties": { "CVEGEO": "1204701010175800", "CVE_ENT": "12", "CVE_MUN": "047", "CVE_LOC": "0101", "CVE_AGEB": "0175", "NOMGEO": "El Manguito" }, "geometry": { "type": "Point", "coordinates": [ -99.880438689999906, 18.538613849999127 ] } },
{ "type": "Feature", "properties": { "CVEGEO": "1204700250175800", "CVE_ENT": "12", "CVE_MUN": "047", "CVE_LOC": "0025", "CVE_AGEB": "0175", "NOMGEO": "Nopala" }, "geometry": { "type": "Point", "coordinates": [ -99.930876769999912, 18.548804349999152 ] } },
{ "type": "Feature", "properties": { "CVEGEO": "1204701000175800", "CVE_ENT": "12", "CVE_MUN": "047", "CVE_LOC": "0100", "CVE_AGEB": "0175", "NOMGEO": "Los Fresnos" }, "geometry": { "type": "Point", "coordinates": [ -99.871020289999976, 18.548823229999122 ] } },
{ "type": "Feature", "properties": { "CVEGEO": "120470103018A800", "CVE_ENT": "12", "CVE_MUN": "047", "CVE_LOC": "0103", "CVE_AGEB": "018A", "NOMGEO": "Puerto del Coyote" }, "geometry": { "type": "Point", "coordinates": [ -99.828364, 18.539001849999096 ] } },
{ "type": "Feature", "properties": { "CVEGEO": "1204700060175800", "CVE_ENT": "12", "CVE_MUN": "047", "CVE_LOC": "0006", "CVE_AGEB": "0175", "NOMGEO": "Atotonilco" }, "geometry": { "type": "Point", "coordinates": [ -99.916431709999941, 18.560469939999152 ] } },
{ "type": "Feature", "properties": { "CVEGEO": "1204701140175800", "CVE_ENT": "12", "CVE_MUN": "047", "CVE_LOC": "0114", "CVE_AGEB": "0175", "NOMGEO": "Agua Fría" }, "geometry": { "type": "Point", "coordinates": [ -99.860648739999959, 18.561331079999139 ] } },
{ "type": "Feature", "properties": { "CVEGEO": "1204700040175800", "CVE_ENT": "12", "CVE_MUN": "047", "CVE_LOC": "0004", "CVE_AGEB": "0175", "NOMGEO": "Ahuehuetitla" }, "geometry": { "type": "Point", "coordinates": [ -99.893375229999904, 18.575468479999124 ] } },
{ "type": "Feature", "properties": { "CVEGEO": "1204700070175800", "CVE_ENT": "12", "CVE_MUN": "047", "CVE_LOC": "0007", "CVE_AGEB": "0175", "NOMGEO": "La Aurora" }, "geometry": { "type": "Point", "coordinates": [ -99.846562549999959, 18.571430489999166 ] } },
{ "type": "Feature", "properties": { "CVEGEO": "120470036018A800", "CVE_ENT": "12", "CVE_MUN": "047", "CVE_LOC": "0036", "CVE_AGEB": "018A", "NOMGEO": "Salitre Chiquito" }, "geometry": { "type": "Point", "coordinates": [ -99.818658619999908, 18.567698939999133 ] } },
{ "type": "Feature", "properties": { "CVEGEO": "1204700440175800", "CVE_ENT": "12", "CVE_MUN": "047", "CVE_LOC": "0044", "CVE_AGEB": "0175", "NOMGEO": "Teacalco" }, "geometry": { "type": "Point", "coordinates": [ -99.907264619999935, 18.569080249999143 ] } },
{ "type": "Feature", "properties": { "CVEGEO": "120470069018A800", "CVE_ENT": "12", "CVE_MUN": "047", "CVE_LOC": "0069", "CVE_AGEB": "018A", "NOMGEO": "El Paraje" }, "geometry": { "type": "Point", "coordinates": [ -99.797263109999918, 18.56219619999916 ] } },
{ "type": "Feature", "properties": { "CVEGEO": "1204700140175800", "CVE_ENT": "12", "CVE_MUN": "047", "CVE_LOC": "0014", "CVE_AGEB": "0175", "NOMGEO": "Cirián Grande" }, "geometry": { "type": "Point", "coordinates": [ -99.930418139999929, 18.584748849999126 ] } },
{ "type": "Feature", "properties": { "CVEGEO": "1204701070175800", "CVE_ENT": "12", "CVE_MUN": "047", "CVE_LOC": "0107", "CVE_AGEB": "0175", "NOMGEO": "La Castrejona" }, "geometry": { "type": "Point", "coordinates": [ -99.875042539999939, 18.578142709999117 ] } },
{ "type": "Feature", "properties": { "CVEGEO": "120470047018A800", "CVE_ENT": "12", "CVE_MUN": "047", "CVE_LOC": "0047", "CVE_AGEB": "018A", "NOMGEO": "El Tecolote" }, "geometry": { "type": "Point", "coordinates": [ -99.812816909999938, 18.593799349999127 ] } },
{ "type": "Feature", "properties": { "CVEGEO": "1204700100175800", "CVE_ENT": "12", "CVE_MUN": "047", "CVE_LOC": "0010", "CVE_AGEB": "0175", "NOMGEO": "La Campana" }, "geometry": { "type": "Point", "coordinates": [ -99.879117849999915, 18.612798289999148 ] } },
{ "type": "Feature", "properties": { "CVEGEO": "1204700030194800", "CVE_ENT": "12", "CVE_MUN": "047", "CVE_LOC": "0003", "CVE_AGEB": "0194", "NOMGEO": "Agua Colorada" }, "geometry": { "type": "Point", "coordinates": [ -99.952823459999962, 18.442701659999162 ] } },
{ "type": "Feature", "properties": { "CVEGEO": "1204700920194800", "CVE_ENT": "12", "CVE_MUN": "047", "CVE_LOC": "0092", "CVE_AGEB": "0194", "NOMGEO": "Pata de Res" }, "geometry": { "type": "Point", "coordinates": [ -99.913206199999962, 18.480561599999135 ] } },
{ "type": "Feature", "properties": { "CVEGEO": "1204700460194800", "CVE_ENT": "12", "CVE_MUN": "047", "CVE_LOC": "0046", "CVE_AGEB": "0194", "NOMGEO": "Tecolotlipa" }, "geometry": { "type": "Point", "coordinates": [ -99.909735109999943, 18.528381689999161 ] } },
{ "type": "Feature", "properties": { "CVEGEO": "1204700600175800", "CVE_ENT": "12", "CVE_MUN": "047", "CVE_LOC": "0060", "CVE_AGEB": "0175", "NOMGEO": "El Copal" }, "geometry": { "type": "Point", "coordinates": [ -99.869116049999917, 18.58910762999912 ] } },
{ "type": "Feature", "properties": { "CVEGEO": "1204700630207800", "CVE_ENT": "12", "CVE_MUN": "047", "CVE_LOC": "0063", "CVE_AGEB": "0207", "NOMGEO": "La Gavia" }, "geometry": { "type": "Point", "coordinates": [ -99.85938894, 18.532036459999098 ] } },
{ "type": "Feature", "properties": { "CVEGEO": "120470113018A800", "CVE_ENT": "12", "CVE_MUN": "047", "CVE_LOC": "0113", "CVE_AGEB": "018A", "NOMGEO": "El Puente Colorado" }, "geometry": { "type": "Point", "coordinates": [ -99.813395279999924, 18.528248369999083 ] } },
{ "type": "Feature", "properties": { "CVEGEO": "120470062018A800", "CVE_ENT": "12", "CVE_MUN": "047", "CVE_LOC": "0062", "CVE_AGEB": "018A", "NOMGEO": "Chitosto" }, "geometry": { "type": "Point", "coordinates": [ -99.772703369999945, 18.618635419999084 ] } },
{ "type": "Feature", "properties": { "CVEGEO": "1204700660175800", "CVE_ENT": "12", "CVE_MUN": "047", "CVE_LOC": "0066", "CVE_AGEB": "0175", "NOMGEO": "El Manto" }, "geometry": { "type": "Point", "coordinates": [ -99.864323849999906, 18.600440249999167 ] } },
{ "type": "Feature", "properties": { "CVEGEO": "120470085018A800", "CVE_ENT": "12", "CVE_MUN": "047", "CVE_LOC": "0085", "CVE_AGEB": "018A", "NOMGEO": "Zalquitzaya" }, "geometry": { "type": "Point", "coordinates": [ -99.791149289999922, 18.606575819999101 ] } },
{ "type": "Feature", "properties": { "CVEGEO": "120470105018A800", "CVE_ENT": "12", "CVE_MUN": "047", "CVE_LOC": "0105", "CVE_AGEB": "018A", "NOMGEO": "Xochipisca" }, "geometry": { "type": "Point", "coordinates": [ -99.774091749999926, 18.593830679999105 ] } },
{ "type": "Feature", "properties": { "CVEGEO": "1204701080175800", "CVE_ENT": "12", "CVE_MUN": "047", "CVE_LOC": "0108", "CVE_AGEB": "0175", "NOMGEO": "El Limón" }, "geometry": { "type": "Point", "coordinates": [ -99.887131349999933, 18.609213659999089 ] } },
{ "type": "Feature", "properties": { "CVEGEO": "120470074018A800", "CVE_ENT": "12", "CVE_MUN": "047", "CVE_LOC": "0074", "CVE_AGEB": "018A", "NOMGEO": "Puerto Oscuro" }, "geometry": { "type": "Point", "coordinates": [ -99.795153279999923, 18.627246719999128 ] } },
{ "type": "Feature", "properties": { "CVEGEO": "120470091018A800", "CVE_ENT": "12", "CVE_MUN": "047", "CVE_LOC": "0091", "CVE_AGEB": "018A", "NOMGEO": "Cruz Alta" }, "geometry": { "type": "Point", "coordinates": [ -99.783926229999949, 18.635740019999133 ] } },
{ "type": "Feature", "properties": { "CVEGEO": "1204700340194800", "CVE_ENT": "12", "CVE_MUN": "047", "CVE_LOC": "0034", "CVE_AGEB": "0194", "NOMGEO": "La Reforma" }, "geometry": { "type": "Point", "coordinates": [ -99.933177489999949, 18.444239749999138 ] } },
{ "type": "Feature", "properties": { "CVEGEO": "1204700570194800", "CVE_ENT": "12", "CVE_MUN": "047", "CVE_LOC": "0057", "CVE_AGEB": "0194", "NOMGEO": "La Camila (Puente de Dios)" }, "geometry": { "type": "Point", "coordinates": [ -99.918009909999938, 18.460468999999119 ] } },
{ "type": "Feature", "properties": { "CVEGEO": "1204700020175800", "CVE_ENT": "12", "CVE_MUN": "047", "CVE_LOC": "0002", "CVE_AGEB": "0175", "NOMGEO": "Acatla" }, "geometry": { "type": "Point", "coordinates": [ -99.90990415, 18.553512139999146 ] } },
{ "type": "Feature", "properties": { "CVEGEO": "1204700290175800", "CVE_ENT": "12", "CVE_MUN": "047", "CVE_LOC": "0029", "CVE_AGEB": "0175", "NOMGEO": "Piedra Colgada" }, "geometry": { "type": "Point", "coordinates": [ -99.952977979999915, 18.553502149999126 ] } },
{ "type": "Feature", "properties": { "CVEGEO": "1204700990175800", "CVE_ENT": "12", "CVE_MUN": "047", "CVE_LOC": "0099", "CVE_AGEB": "0175", "NOMGEO": "Huerta Vieja" }, "geometry": { "type": "Point", "coordinates": [ -99.860076219999897, 18.555468679999123 ] } },
{ "type": "Feature", "properties": { "CVEGEO": "1204700300175800", "CVE_ENT": "12", "CVE_MUN": "047", "CVE_LOC": "0030", "CVE_AGEB": "0175", "NOMGEO": "Piedra Grande" }, "geometry": { "type": "Point", "coordinates": [ -99.943272539999938, 18.560171429999091 ] } },
{ "type": "Feature", "properties": { "CVEGEO": "1204701110175800", "CVE_ENT": "12", "CVE_MUN": "047", "CVE_LOC": "0111", "CVE_AGEB": "0175", "NOMGEO": "Plan del Escorpión" }, "geometry": { "type": "Point", "coordinates": [ -99.862202219999944, 18.605632459999146 ] } },
{ "type": "Feature", "properties": { "CVEGEO": "1204700220194800", "CVE_ENT": "12", "CVE_MUN": "047", "CVE_LOC": "0022", "CVE_AGEB": "0194", "NOMGEO": "Llano de la Merced" }, "geometry": { "type": "Point", "coordinates": [ -99.900876799999949, 18.498530179999115 ] } },
{ "type": "Feature", "properties": { "CVEGEO": "1204700450207800", "CVE_ENT": "12", "CVE_MUN": "047", "CVE_LOC": "0045", "CVE_AGEB": "0207", "NOMGEO": "Tecamachalco" }, "geometry": { "type": "Point", "coordinates": [ -99.8788209399999, 18.4976865199991 ] } },
{ "type": "Feature", "properties": { "CVEGEO": "1204700230194800", "CVE_ENT": "12", "CVE_MUN": "047", "CVE_LOC": "0023", "CVE_AGEB": "0194", "NOMGEO": "Llanos de Ixcapaneca" }, "geometry": { "type": "Point", "coordinates": [ -99.956711449999901, 18.509918779999172 ] } },
{ "type": "Feature", "properties": { "CVEGEO": "1204700500175800", "CVE_ENT": "12", "CVE_MUN": "047", "CVE_LOC": "0050", "CVE_AGEB": "0175", "NOMGEO": "Yahualtengo" }, "geometry": { "type": "Point", "coordinates": [ -99.875712569999934, 18.542572369999135 ] } },
{ "type": "Feature", "properties": { "CVEGEO": "1204700720194800", "CVE_ENT": "12", "CVE_MUN": "047", "CVE_LOC": "0072", "CVE_AGEB": "0194", "NOMGEO": "Puerto del Muerto" }, "geometry": { "type": "Point", "coordinates": [ -99.915598799999927, 18.535749659999102 ] } },
{ "type": "Feature", "properties": { "CVEGEO": "1204700820175800", "CVE_ENT": "12", "CVE_MUN": "047", "CVE_LOC": "0082", "CVE_AGEB": "0175", "NOMGEO": "Tulatengo" }, "geometry": { "type": "Point", "coordinates": [ -99.950044029999916, 18.54324944999912 ] } },
{ "type": "Feature", "properties": { "CVEGEO": "120470109018A800", "CVE_ENT": "12", "CVE_MUN": "047", "CVE_LOC": "0109", "CVE_AGEB": "018A", "NOMGEO": "Potrero del Huizache" }, "geometry": { "type": "Point", "coordinates": [ -99.828055939999913, 18.565501029999126 ] } },
{ "type": "Feature", "properties": { "CVEGEO": "120470024018A800", "CVE_ENT": "12", "CVE_MUN": "047", "CVE_LOC": "0024", "CVE_AGEB": "018A", "NOMGEO": "Metlixtapa" }, "geometry": { "type": "Point", "coordinates": [ -99.847269969999914, 18.547645939999146 ] } },
{ "type": "Feature", "properties": { "CVEGEO": "1204700270175800", "CVE_ENT": "12", "CVE_MUN": "047", "CVE_LOC": "0027", "CVE_AGEB": "0175", "NOMGEO": "Peña del Chivo" }, "geometry": { "type": "Point", "coordinates": [ -99.934545859999943, 18.577329739999115 ] } },
{ "type": "Feature", "properties": { "CVEGEO": "1204700410175800", "CVE_ENT": "12", "CVE_MUN": "047", "CVE_LOC": "0041", "CVE_AGEB": "0175", "NOMGEO": "Santiago Salinas" }, "geometry": { "type": "Point", "coordinates": [ -99.870637429999945, 18.571242579999126 ] } },
{ "type": "Feature", "properties": { "CVEGEO": "1204700480175800", "CVE_ENT": "12", "CVE_MUN": "047", "CVE_LOC": "0048", "CVE_AGEB": "0175", "NOMGEO": "Tepatulco" }, "geometry": { "type": "Point", "coordinates": [ -99.907002979999916, 18.535478179999121 ] } },
{ "type": "Feature", "properties": { "CVEGEO": "120470011018A800", "CVE_ENT": "12", "CVE_MUN": "047", "CVE_LOC": "0011", "CVE_AGEB": "018A", "NOMGEO": "Cañada de Tepoxonal" }, "geometry": { "type": "Point", "coordinates": [ -99.772877459999933, 18.577754179999147 ] } },
{ "type": "Feature", "properties": { "CVEGEO": "120470038018A800", "CVE_ENT": "12", "CVE_MUN": "047", "CVE_LOC": "0038", "CVE_AGEB": "018A", "NOMGEO": "San Pablo" }, "geometry": { "type": "Point", "coordinates": [ -99.77822874, 18.608780969999128 ] } },
{ "type": "Feature", "properties": { "CVEGEO": "1204700590175800", "CVE_ENT": "12", "CVE_MUN": "047", "CVE_LOC": "0059", "CVE_AGEB": "0175", "NOMGEO": "El Cuahuilote" }, "geometry": { "type": "Point", "coordinates": [ -99.858293249999932, 18.577963349999131 ] } },
{ "type": "Feature", "properties": { "CVEGEO": "120470065018A800", "CVE_ENT": "12", "CVE_MUN": "047", "CVE_LOC": "0065", "CVE_AGEB": "018A", "NOMGEO": "Huixpa" }, "geometry": { "type": "Point", "coordinates": [ -99.788094199999961, 18.57880025999912 ] } },
{ "type": "Feature", "properties": { "CVEGEO": "120470110018A800", "CVE_ENT": "12", "CVE_MUN": "047", "CVE_LOC": "0110", "CVE_AGEB": "018A", "NOMGEO": "Santa María Sinoquila" }, "geometry": { "type": "Point", "coordinates": [ -99.806324539999949, 18.618179139999125 ] } },
{ "type": "Feature", "properties": { "CVEGEO": "1204700730194800", "CVE_ENT": "12", "CVE_MUN": "047", "CVE_LOC": "0073", "CVE_AGEB": "0194", "NOMGEO": "Puerto Hondo" }, "geometry": { "type": "Point", "coordinates": [ -99.913014689999912, 18.521218679999119 ] } },
{ "type": "Feature", "properties": { "CVEGEO": "1204701020194800", "CVE_ENT": "12", "CVE_MUN": "047", "CVE_LOC": "0102", "CVE_AGEB": "0194", "NOMGEO": "El Molonial" }, "geometry": { "type": "Point", "coordinates": [ -99.938775179999894, 18.472698339999113 ] } },
{ "type": "Feature", "properties": { "CVEGEO": "1204700900207800", "CVE_ENT": "12", "CVE_MUN": "047", "CVE_LOC": "0090", "CVE_AGEB": "0207", "NOMGEO": "La Legua" }, "geometry": { "type": "Point", "coordinates": [ -99.895043539999946, 18.482975769999097 ] } },
{ "type": "Feature", "properties": { "CVEGEO": "1204700170194800", "CVE_ENT": "12", "CVE_MUN": "047", "CVE_LOC": "0017", "CVE_AGEB": "0194", "NOMGEO": "Cuajinicuila" }, "geometry": { "type": "Point", "coordinates": [ -99.934514919999941, 18.522989829999126 ] } },
{ "type": "Feature", "properties": { "CVEGEO": "1204700840175800", "CVE_ENT": "12", "CVE_MUN": "047", "CVE_LOC": "0084", "CVE_AGEB": "0175", "NOMGEO": "Momuxtle" }, "geometry": { "type": "Point", "coordinates": [ -99.890319749999904, 18.566302509999137 ] } },
{ "type": "Feature", "properties": { "CVEGEO": "1201302550209800", "CVE_ENT": "12", "CVE_MUN": "013", "CVE_LOC": "0255", "CVE_AGEB": "0209", "NOMGEO": "La Amatera" }, "geometry": { "type": "Point", "coordinates": [ -98.554948, 16.583871859999086 ] } },
{ "type": "Feature", "properties": { "CVEGEO": "1201300500209800", "CVE_ENT": "12", "CVE_MUN": "013", "CVE_LOC": "0050", "CVE_AGEB": "0209", "NOMGEO": "Los Quiterios" }, "geometry": { "type": "Point", "coordinates": [ -98.544123799999923, 16.595969889999115 ] } },
{ "type": "Feature", "properties": { "CVEGEO": "1201300980209800", "CVE_ENT": "12", "CVE_MUN": "013", "CVE_LOC": "0098", "CVE_AGEB": "0209", "NOMGEO": "Cola de Charco (Charco Grande)" }, "geometry": { "type": "Point", "coordinates": [ -98.506763479999947, 16.597375939999125 ] } },
{ "type": "Feature", "properties": { "CVEGEO": "1201301290209800", "CVE_ENT": "12", "CVE_MUN": "013", "CVE_LOC": "0129", "CVE_AGEB": "0209", "NOMGEO": "Las Trancas" }, "geometry": { "type": "Point", "coordinates": [ -98.514770219999903, 16.604379019999101 ] } },
{ "type": "Feature", "properties": { "CVEGEO": "1201300100209800", "CVE_ENT": "12", "CVE_MUN": "013", "CVE_LOC": "0010", "CVE_AGEB": "0209", "NOMGEO": "La Bocana" }, "geometry": { "type": "Point", "coordinates": [ -98.5016346, 16.623921249999096 ] } },
{ "type": "Feature", "properties": { "CVEGEO": "1201302570209800", "CVE_ENT": "12", "CVE_MUN": "013", "CVE_LOC": "0257", "CVE_AGEB": "0209", "NOMGEO": "Chalacatepec" }, "geometry": { "type": "Point", "coordinates": [ -98.511474509999957, 16.62695837999912 ] } },
{ "type": "Feature", "properties": { "CVEGEO": "1201301250209800", "CVE_ENT": "12", "CVE_MUN": "013", "CVE_LOC": "0125", "CVE_AGEB": "0209", "NOMGEO": "Rosendo Balanzar García [Rancho]" }, "geometry": { "type": "Point", "coordinates": [ -98.503965199999939, 16.633266029999138 ] } },
{ "type": "Feature", "properties": { "CVEGEO": "1201301940177800", "CVE_ENT": "12", "CVE_MUN": "013", "CVE_LOC": "0194", "CVE_AGEB": "0177", "NOMGEO": "Rancho Celso Muñoz" }, "geometry": { "type": "Point", "coordinates": [ -98.533232949999942, 16.652674849999098 ] } },
{ "type": "Feature", "properties": { "CVEGEO": "1201302400162800", "CVE_ENT": "12", "CVE_MUN": "013", "CVE_LOC": "0240", "CVE_AGEB": "0162", "NOMGEO": "Huerta Pablo Maceda" }, "geometry": { "type": "Point", "coordinates": [ -98.6282086199999, 16.664118969999141 ] } },
{ "type": "Feature", "properties": { "CVEGEO": "1201301150177800", "CVE_ENT": "12", "CVE_MUN": "013", "CVE_LOC": "0115", "CVE_AGEB": "0177", "NOMGEO": "Rancho Muñoz" }, "geometry": { "type": "Point", "coordinates": [ -98.513882649999928, 16.665836019999073 ] } },
{ "type": "Feature", "properties": { "CVEGEO": "1201302060162800", "CVE_ENT": "12", "CVE_MUN": "013", "CVE_LOC": "0206", "CVE_AGEB": "0162", "NOMGEO": "Rancho Edrey Bautista" }, "geometry": { "type": "Point", "coordinates": [ -98.601892879999937, 16.67241893999914 ] } },
{ "type": "Feature", "properties": { "CVEGEO": "1201300370162800", "CVE_ENT": "12", "CVE_MUN": "013", "CVE_LOC": "0037", "CVE_AGEB": "0162", "NOMGEO": "Llano del Muerto (Rancho de Chema Rodríguez)" }, "geometry": { "type": "Point", "coordinates": [ -98.642758219999919, 16.677883309999096 ] } },
{ "type": "Feature", "properties": { "CVEGEO": "1201301030196800", "CVE_ENT": "12", "CVE_MUN": "013", "CVE_LOC": "0103", "CVE_AGEB": "0196", "NOMGEO": "Charco Choco (Rancho Domingo Martínez)" }, "geometry": { "type": "Point", "coordinates": [ -98.5913502499999, 16.517536939999136 ] } },
{ "type": "Feature", "properties": { "CVEGEO": "1201301090196800", "CVE_ENT": "12", "CVE_MUN": "013", "CVE_LOC": "0109", "CVE_AGEB": "0196", "NOMGEO": "Rancho Hermanos Cortez" }, "geometry": { "type": "Point", "coordinates": [ -98.575963849999894, 16.530923399999118 ] } },
{ "type": "Feature", "properties": { "CVEGEO": "1201301660196800", "CVE_ENT": "12", "CVE_MUN": "013", "CVE_LOC": "0166", "CVE_AGEB": "0196", "NOMGEO": "Huerta Gustavo Guerrero Cortez" }, "geometry": { "type": "Point", "coordinates": [ -98.5673593699999, 16.535826659999088 ] } },
{ "type": "Feature", "properties": { "CVEGEO": "1201301890196800", "CVE_ENT": "12", "CVE_MUN": "013", "CVE_LOC": "0189", "CVE_AGEB": "0196", "NOMGEO": "Rancho Adalberto Sáligan Ávila (Playa Larga)" }, "geometry": { "type": "Point", "coordinates": [ -98.581966859999923, 16.541391779999103 ] } },
{ "type": "Feature", "properties": { "CVEGEO": "1201302470196800", "CVE_ENT": "12", "CVE_MUN": "013", "CVE_LOC": "0247", "CVE_AGEB": "0196", "NOMGEO": "Rancho Manzanárez Cortez" }, "geometry": { "type": "Point", "coordinates": [ -98.578851829999934, 16.540869169999134 ] } },
{ "type": "Feature", "properties": { "CVEGEO": "1201301310196800", "CVE_ENT": "12", "CVE_MUN": "013", "CVE_LOC": "0131", "CVE_AGEB": "0196", "NOMGEO": "La Unión de los Hernández" }, "geometry": { "type": "Point", "coordinates": [ -98.566576139999896, 16.5424958199991 ] } },
{ "type": "Feature", "properties": { "CVEGEO": "1201301870196800", "CVE_ENT": "12", "CVE_MUN": "013", "CVE_LOC": "0187", "CVE_AGEB": "0196", "NOMGEO": "Playa Larga" }, "geometry": { "type": "Point", "coordinates": [ -98.576821149999915, 16.548761369999088 ] } },
{ "type": "Feature", "properties": { "CVEGEO": "1201301850162800", "CVE_ENT": "12", "CVE_MUN": "013", "CVE_LOC": "0185", "CVE_AGEB": "0162", "NOMGEO": "Peñas Negras" }, "geometry": { "type": "Point", "coordinates": [ -98.640263379999951, 16.726009629999083 ] } },
{ "type": "Feature", "properties": { "CVEGEO": "1201302520143800", "CVE_ENT": "12", "CVE_MUN": "013", "CVE_LOC": "0252", "CVE_AGEB": "0143", "NOMGEO": "Rancho Cerro Cuate" }, "geometry": { "type": "Point", "coordinates": [ -98.559931229999933, 16.726955139999067 ] } },
{ "type": "Feature", "properties": { "CVEGEO": "1201302510143800", "CVE_ENT": "12", "CVE_MUN": "013", "CVE_LOC": "0251", "CVE_AGEB": "0143", "NOMGEO": "Las Pilitas" }, "geometry": { "type": "Point", "coordinates": [ -98.587702199999924, 16.732588059999127 ] } },
{ "type": "Feature", "properties": { "CVEGEO": "1201300940209800", "CVE_ENT": "12", "CVE_MUN": "013", "CVE_LOC": "0094", "CVE_AGEB": "0209", "NOMGEO": "Cafetal (Rancho Amado Herrera Martínez)" }, "geometry": { "type": "Point", "coordinates": [ -98.554097509999934, 16.564269059999148 ] } },
{ "type": "Feature", "properties": { "CVEGEO": "1201300890209800", "CVE_ENT": "12", "CVE_MUN": "013", "CVE_LOC": "0089", "CVE_AGEB": "0209", "NOMGEO": "Charco de Alfonso Cruz (Los Carmona la Loma)" }, "geometry": { "type": "Point", "coordinates": [ -98.539122939999956, 16.598956799999115 ] } },
{ "type": "Feature", "properties": { "CVEGEO": "1201302240196800", "CVE_ENT": "12", "CVE_MUN": "013", "CVE_LOC": "0224", "CVE_AGEB": "0196", "NOMGEO": "Rancho Paulino Dámaso Mayo" }, "geometry": { "type": "Point", "coordinates": [ -98.574683949999908, 16.523370349999144 ] } },
{ "type": "Feature", "properties": { "CVEGEO": "1201301330162800", "CVE_ENT": "12", "CVE_MUN": "013", "CVE_LOC": "0133", "CVE_AGEB": "0162", "NOMGEO": "Rancho Muñoz Castellanos" }, "geometry": { "type": "Point", "coordinates": [ -98.649620749999897, 16.669331279999149 ] } },
{ "type": "Feature", "properties": { "CVEGEO": "1201301440162800", "CVE_ENT": "12", "CVE_MUN": "013", "CVE_LOC": "0144", "CVE_AGEB": "0162", "NOMGEO": "Rancho Eleazar Zurita" }, "geometry": { "type": "Point", "coordinates": [ -98.652437089999935, 16.677336309999127 ] } },
{ "type": "Feature", "properties": { "CVEGEO": "1201302250209800", "CVE_ENT": "12", "CVE_MUN": "013", "CVE_LOC": "0225", "CVE_AGEB": "0209", "NOMGEO": "Rancho Herrera Martínez" }, "geometry": { "type": "Point", "coordinates": [ -98.598067859999944, 16.639263419999125 ] } },
{ "type": "Feature", "properties": { "CVEGEO": "1201302000162800", "CVE_ENT": "12", "CVE_MUN": "013", "CVE_LOC": "0200", "CVE_AGEB": "0162", "NOMGEO": "Rancho Dos Laureles" }, "geometry": { "type": "Point", "coordinates": [ -98.636361119999904, 16.68002625999906 ] } },
{ "type": "Feature", "properties": { "CVEGEO": "1201300350162800", "CVE_ENT": "12", "CVE_MUN": "013", "CVE_LOC": "0035", "CVE_AGEB": "0162", "NOMGEO": "Lomas del Vidal (El Vidal)" }, "geometry": { "type": "Point", "coordinates": [ -98.614333629999948, 16.687908449999121 ] } },
{ "type": "Feature", "properties": { "CVEGEO": "1201302160196800", "CVE_ENT": "12", "CVE_MUN": "013", "CVE_LOC": "0216", "CVE_AGEB": "0196", "NOMGEO": "Rancho los Mendoza" }, "geometry": { "type": "Point", "coordinates": [ -98.588342379999929, 16.520825679999099 ] } },
{ "type": "Feature", "properties": { "CVEGEO": "1201300930162800", "CVE_ENT": "12", "CVE_MUN": "013", "CVE_LOC": "0093", "CVE_AGEB": "0162", "NOMGEO": "Rancho Bautista Dos (Hermanos B. Florentino)" }, "geometry": { "type": "Point", "coordinates": [ -98.634427629999934, 16.704678169999109 ] } },
{ "type": "Feature", "properties": { "CVEGEO": "1201302020143800", "CVE_ENT": "12", "CVE_MUN": "013", "CVE_LOC": "0202", "CVE_AGEB": "0143", "NOMGEO": "Rancho el Mesón" }, "geometry": { "type": "Point", "coordinates": [ -98.603407379999922, 16.722191649999147 ] } },
{ "type": "Feature", "properties": { "CVEGEO": "1201301380162800", "CVE_ENT": "12", "CVE_MUN": "013", "CVE_LOC": "0138", "CVE_AGEB": "0162", "NOMGEO": "La Mazacuata" }, "geometry": { "type": "Point", "coordinates": [ -98.642474479999962, 16.715857399999155 ] } },
{ "type": "Feature", "properties": { "CVEGEO": "1201300570143800", "CVE_ENT": "12", "CVE_MUN": "013", "CVE_LOC": "0057", "CVE_AGEB": "0143", "NOMGEO": "Tencohuey" }, "geometry": { "type": "Point", "coordinates": [ -98.600710459999945, 16.759967579999095 ] } },
{ "type": "Feature", "properties": { "CVEGEO": "1201301110162800", "CVE_ENT": "12", "CVE_MUN": "013", "CVE_LOC": "0111", "CVE_AGEB": "0162", "NOMGEO": "Rancho Dos Potrillos (Rancho Luis Justo H.)" }, "geometry": { "type": "Point", "coordinates": [ -98.6419172799999, 16.688914519999109 ] } },
{ "type": "Feature", "properties": { "CVEGEO": "1201301020162800", "CVE_ENT": "12", "CVE_MUN": "013", "CVE_LOC": "0102", "CVE_AGEB": "0162", "NOMGEO": "Finca los Pumas (Crucero Lomas del Vidal)" }, "geometry": { "type": "Point", "coordinates": [ -98.624637579999927, 16.692930369999104 ] } },
{ "type": "Feature", "properties": { "CVEGEO": "1201300550209800", "CVE_ENT": "12", "CVE_MUN": "013", "CVE_LOC": "0055", "CVE_AGEB": "0209", "NOMGEO": "El Tamarindo" }, "geometry": { "type": "Point", "coordinates": [ -98.547897979999917, 16.573748909999136 ] } },
{ "type": "Feature", "properties": { "CVEGEO": "1201301180209800", "CVE_ENT": "12", "CVE_MUN": "013", "CVE_LOC": "0118", "CVE_AGEB": "0209", "NOMGEO": "Palo Blanco" }, "geometry": { "type": "Point", "coordinates": [ -98.501329739999917, 16.594267479999104 ] } },
{ "type": "Feature", "properties": { "CVEGEO": "1201300880177800", "CVE_ENT": "12", "CVE_MUN": "013", "CVE_LOC": "0088", "CVE_AGEB": "0177", "NOMGEO": "Aguacatillo (Rancho Maximino Muñoz)" }, "geometry": { "type": "Point", "coordinates": [ -98.559923029999894, 16.653681949999108 ] } },
{ "type": "Feature", "properties": { "CVEGEO": "1201302050177800", "CVE_ENT": "12", "CVE_MUN": "013", "CVE_LOC": "0205", "CVE_AGEB": "0177", "NOMGEO": "Rancho Gabriel Herrera" }, "geometry": { "type": "Point", "coordinates": [ -98.5071519699999, 16.663778369999097 ] } },
{ "type": "Feature", "properties": { "CVEGEO": "1201301200209800", "CVE_ENT": "12", "CVE_MUN": "013", "CVE_LOC": "0120", "CVE_AGEB": "0209", "NOMGEO": "Playa Suave" }, "geometry": { "type": "Point", "coordinates": [ -98.510254769999932, 16.613580709999145 ] } },
{ "type": "Feature", "properties": { "CVEGEO": "1201301260162800", "CVE_ENT": "12", "CVE_MUN": "013", "CVE_LOC": "0126", "CVE_AGEB": "0162", "NOMGEO": "El Salto" }, "geometry": { "type": "Point", "coordinates": [ -98.608032089999909, 16.777351089999069 ] } },
{ "type": "Feature", "properties": { "CVEGEO": "1201301120177800", "CVE_ENT": "12", "CVE_MUN": "013", "CVE_LOC": "0112", "CVE_AGEB": "0177", "NOMGEO": "Rancho Lempira" }, "geometry": { "type": "Point", "coordinates": [ -98.5065230299999, 16.657793229999093 ] } },
{ "type": "Feature", "properties": { "CVEGEO": "1201301930143800", "CVE_ENT": "12", "CVE_MUN": "013", "CVE_LOC": "0193", "CVE_AGEB": "0143", "NOMGEO": "Rancho Carlota Viuda de Peña" }, "geometry": { "type": "Point", "coordinates": [ -98.588392079999906, 16.718696999999135 ] } },
{ "type": "Feature", "properties": { "CVEGEO": "1201301300209800", "CVE_ENT": "12", "CVE_MUN": "013", "CVE_LOC": "0130", "CVE_AGEB": "0209", "NOMGEO": "Tres Pelos" }, "geometry": { "type": "Point", "coordinates": [ -98.51601148, 16.611985679999076 ] } },
{ "type": "Feature", "properties": { "CVEGEO": "1201302440143800", "CVE_ENT": "12", "CVE_MUN": "013", "CVE_LOC": "0244", "CVE_AGEB": "0143", "NOMGEO": "Rancho Mario Bautista" }, "geometry": { "type": "Point", "coordinates": [ -98.591365779999975, 16.76529977999915 ] } },
{ "type": "Feature", "properties": { "CVEGEO": "1201300220143800", "CVE_ENT": "12", "CVE_MUN": "013", "CVE_LOC": "0022", "CVE_AGEB": "0143", "NOMGEO": "La Culebra" }, "geometry": { "type": "Point", "coordinates": [ -98.565800139999922, 16.780416979999107 ] } },
{ "type": "Feature", "properties": { "CVEGEO": "1201300470162800", "CVE_ENT": "12", "CVE_MUN": "013", "CVE_LOC": "0047", "CVE_AGEB": "0162", "NOMGEO": "El Potrero" }, "geometry": { "type": "Point", "coordinates": [ -98.600736079999947, 16.776228059999131 ] } },
{ "type": "Feature", "properties": { "CVEGEO": "1201300870143800", "CVE_ENT": "12", "CVE_MUN": "013", "CVE_LOC": "0087", "CVE_AGEB": "0143", "NOMGEO": "Agua Fría" }, "geometry": { "type": "Point", "coordinates": [ -98.582755249999977, 16.777243649999132 ] } },
{ "type": "Feature", "properties": { "CVEGEO": "1201301520209800", "CVE_ENT": "12", "CVE_MUN": "013", "CVE_LOC": "0152", "CVE_AGEB": "0209", "NOMGEO": "Crucero de Huehuetán [Escuela Secundaria J. García J.]" }, "geometry": { "type": "Point", "coordinates": [ -98.575042919999945, 16.641956259999116 ] } },
{ "type": "Feature", "properties": { "CVEGEO": "1201302320209800", "CVE_ENT": "12", "CVE_MUN": "013", "CVE_LOC": "0232", "CVE_AGEB": "0209", "NOMGEO": "Zapotitán" }, "geometry": { "type": "Point", "coordinates": [ -98.521225769999916, 16.636990449999129 ] } },
{ "type": "Feature", "properties": { "CVEGEO": "1201300920162800", "CVE_ENT": "12", "CVE_MUN": "013", "CVE_LOC": "0092", "CVE_AGEB": "0162", "NOMGEO": "Rancho el Limón (Rancho Bautista)" }, "geometry": { "type": "Point", "coordinates": [ -98.646638999999894, 16.680581569999173 ] } },
{ "type": "Feature", "properties": { "CVEGEO": "1201300760162800", "CVE_ENT": "12", "CVE_MUN": "013", "CVE_LOC": "0076", "CVE_AGEB": "0162", "NOMGEO": "Toxnene" }, "geometry": { "type": "Point", "coordinates": [ -98.587068349999967, 16.681379059999127 ] } },
{ "type": "Feature", "properties": { "CVEGEO": "1201301430162800", "CVE_ENT": "12", "CVE_MUN": "013", "CVE_LOC": "0143", "CVE_AGEB": "0162", "NOMGEO": "Rancho Ángel Zurita" }, "geometry": { "type": "Point", "coordinates": [ -98.6543208199999, 16.682324739999135 ] } },
{ "type": "Feature", "properties": { "CVEGEO": "1201302300162800", "CVE_ENT": "12", "CVE_MUN": "013", "CVE_LOC": "0230", "CVE_AGEB": "0162", "NOMGEO": "Rancho el Centenario (Rancho Luis Justo)" }, "geometry": { "type": "Point", "coordinates": [ -98.614746169999947, 16.700904399999143 ] } },
{ "type": "Feature", "properties": { "CVEGEO": "1201302540162800", "CVE_ENT": "12", "CVE_MUN": "013", "CVE_LOC": "0254", "CVE_AGEB": "0162", "NOMGEO": "Rancho la Antena" }, "geometry": { "type": "Point", "coordinates": [ -98.609971889999926, 16.710193689999109 ] } },
{ "type": "Feature", "properties": { "CVEGEO": "1201301140196800", "CVE_ENT": "12", "CVE_MUN": "013", "CVE_LOC": "0114", "CVE_AGEB": "0196", "NOMGEO": "Rancho Maximiliano Mendoza (Rancho de Lango)" }, "geometry": { "type": "Point", "coordinates": [ -98.579958339999919, 16.525403979999073 ] } },
{ "type": "Feature", "properties": { "CVEGEO": "1201302530196800", "CVE_ENT": "12", "CVE_MUN": "013", "CVE_LOC": "0253", "CVE_AGEB": "0196", "NOMGEO": "Rancho Isabel Rodríguez" }, "geometry": { "type": "Point", "coordinates": [ -98.593042769999911, 16.537873679999116 ] } },
{ "type": "Feature", "properties": { "CVEGEO": "1201302070162800", "CVE_ENT": "12", "CVE_MUN": "013", "CVE_LOC": "0207", "CVE_AGEB": "0162", "NOMGEO": "Rancho Hermanos Alvarado (Crucero de Huehuetán)" }, "geometry": { "type": "Point", "coordinates": [ -98.576997619999943, 16.64584267999912 ] } },
{ "type": "Feature", "properties": { "CVEGEO": "1201302130162800", "CVE_ENT": "12", "CVE_MUN": "013", "CVE_LOC": "0213", "CVE_AGEB": "0162", "NOMGEO": "Rancho Lauro Justo (Amate Guinea)" }, "geometry": { "type": "Point", "coordinates": [ -98.585446919999939, 16.644217079999095 ] } },
{ "type": "Feature", "properties": { "CVEGEO": "1201302200196800", "CVE_ENT": "12", "CVE_MUN": "013", "CVE_LOC": "0220", "CVE_AGEB": "0196", "NOMGEO": "Rancho Mariana Cortez" }, "geometry": { "type": "Point", "coordinates": [ -98.605239339999954, 16.520314179999119 ] } },
{ "type": "Feature", "properties": { "CVEGEO": "1201302430196800", "CVE_ENT": "12", "CVE_MUN": "013", "CVE_LOC": "0243", "CVE_AGEB": "0196", "NOMGEO": "Rancho Carlos Villanueva Mendoza" }, "geometry": { "type": "Point", "coordinates": [ -98.5703691099999, 16.522636859999107 ] } },
{ "type": "Feature", "properties": { "CVEGEO": "1201302190143800", "CVE_ENT": "12", "CVE_MUN": "013", "CVE_LOC": "0219", "CVE_AGEB": "0143", "NOMGEO": "Rancho Magdaleno Justo" }, "geometry": { "type": "Point", "coordinates": [ -98.5844559799999, 16.709735109999116 ] } },
{ "type": "Feature", "properties": { "CVEGEO": "1201302580162800", "CVE_ENT": "12", "CVE_MUN": "013", "CVE_LOC": "0258", "CVE_AGEB": "0162", "NOMGEO": "Rancho Hermenegildo Antonio Hernández" }, "geometry": { "type": "Point", "coordinates": [ -98.592799649999918, 16.701195969999137 ] } },
{ "type": "Feature", "properties": { "CVEGEO": "1201301320196800", "CVE_ENT": "12", "CVE_MUN": "013", "CVE_LOC": "0132", "CVE_AGEB": "0196", "NOMGEO": "Villa de Cortez" }, "geometry": { "type": "Point", "coordinates": [ -98.597775249999955, 16.536199449999067 ] } },
{ "type": "Feature", "properties": { "CVEGEO": "1201302450209800", "CVE_ENT": "12", "CVE_MUN": "013", "CVE_LOC": "0245", "CVE_AGEB": "0209", "NOMGEO": "Rancho el Chorro (Celso Alvarado Nolasco)" }, "geometry": { "type": "Point", "coordinates": [ -98.559133599999925, 16.60253251999918 ] } },
{ "type": "Feature", "properties": { "CVEGEO": "1201302490143800", "CVE_ENT": "12", "CVE_MUN": "013", "CVE_LOC": "0249", "CVE_AGEB": "0143", "NOMGEO": "Cerro Cuate" }, "geometry": { "type": "Point", "coordinates": [ -98.569975489999976, 16.729852859999102 ] } },
{ "type": "Feature", "properties": { "CVEGEO": "1201301860196800", "CVE_ENT": "12", "CVE_MUN": "013", "CVE_LOC": "0186", "CVE_AGEB": "0196", "NOMGEO": "El Arenal (La Plataforma)" }, "geometry": { "type": "Point", "coordinates": [ -98.562463149999971, 16.54475822999915 ] } },
{ "type": "Feature", "properties": { "CVEGEO": "1203500210598800", "CVE_ENT": "12", "CVE_MUN": "035", "CVE_LOC": "0021", "CVE_AGEB": "0598", "NOMGEO": "Tijeritas" }, "geometry": { "type": "Point", "coordinates": [ -99.545150549999931, 18.38960981999913 ] } },
{ "type": "Feature", "properties": { "CVEGEO": "1203500950615800", "CVE_ENT": "12", "CVE_MUN": "035", "CVE_LOC": "0095", "CVE_AGEB": "0615", "NOMGEO": "Tuxpan [Estación de Microondas]" }, "geometry": { "type": "Point", "coordinates": [ -99.472804799999906, 18.390228219999109 ] } },
{ "type": "Feature", "properties": { "CVEGEO": "120350127062A800", "CVE_ENT": "12", "CVE_MUN": "035", "CVE_LOC": "0127", "CVE_AGEB": "062A", "NOMGEO": "Colonia CNOP Uno" }, "geometry": { "type": "Point", "coordinates": [ -99.5278430799999, 18.328731939999138 ] } },
{ "type": "Feature", "properties": { "CVEGEO": "1203501290668800", "CVE_ENT": "12", "CVE_MUN": "035", "CVE_LOC": "0129", "CVE_AGEB": "0668", "NOMGEO": "Colonia Santa Elena (El Caolín)" }, "geometry": { "type": "Point", "coordinates": [ -99.6253166, 18.086334799999108 ] } },
{ "type": "Feature", "properties": { "CVEGEO": "1203501590649800", "CVE_ENT": "12", "CVE_MUN": "035", "CVE_LOC": "0159", "CVE_AGEB": "0649", "NOMGEO": "La Ciénega" }, "geometry": { "type": "Point", "coordinates": [ -99.543893509999933, 18.22869213999914 ] } },
{ "type": "Feature", "properties": { "CVEGEO": "1203500780598800", "CVE_ENT": "12", "CVE_MUN": "035", "CVE_LOC": "0078", "CVE_AGEB": "0598", "NOMGEO": "El Polvorín" }, "geometry": { "type": "Point", "coordinates": [ -99.597430179999904, 18.327103149999093 ] } },
{ "type": "Feature", "properties": { "CVEGEO": "120350066062A800", "CVE_ENT": "12", "CVE_MUN": "035", "CVE_LOC": "0066", "CVE_AGEB": "062A", "NOMGEO": "Los Trapichales" }, "geometry": { "type": "Point", "coordinates": [ -99.555882079999918, 18.329921739999122 ] } },
{ "type": "Feature", "properties": { "CVEGEO": "120350094062A800", "CVE_ENT": "12", "CVE_MUN": "035", "CVE_LOC": "0094", "CVE_AGEB": "062A", "NOMGEO": "La Ermita de la Veinticuatro de Febrero" }, "geometry": { "type": "Point", "coordinates": [ -99.531861579999912, 18.328836119999146 ] } },
{ "type": "Feature", "properties": { "CVEGEO": "120350126062A800", "CVE_ENT": "12", "CVE_MUN": "035", "CVE_LOC": "0126", "CVE_AGEB": "062A", "NOMGEO": "Colonia 24 de Febrero" }, "geometry": { "type": "Point", "coordinates": [ -99.528209569999916, 18.330028719999088 ] } },
{ "type": "Feature", "properties": { "CVEGEO": "1203500980598800", "CVE_ENT": "12", "CVE_MUN": "035", "CVE_LOC": "0098", "CVE_AGEB": "0598", "NOMGEO": "El Guardaganado (El Zoquital)" }, "geometry": { "type": "Point", "coordinates": [ -99.591751889999912, 18.3342347699991 ] } },
{ "type": "Feature", "properties": { "CVEGEO": "1203501220600800", "CVE_ENT": "12", "CVE_MUN": "035", "CVE_LOC": "0122", "CVE_AGEB": "0600", "NOMGEO": "Huerta Carrión" }, "geometry": { "type": "Point", "coordinates": [ -99.51039595, 18.338468709999109 ] } },
{ "type": "Feature", "properties": { "CVEGEO": "1203500290649800", "CVE_ENT": "12", "CVE_MUN": "035", "CVE_LOC": "0029", "CVE_AGEB": "0649", "NOMGEO": "La Floresta" }, "geometry": { "type": "Point", "coordinates": [ -99.522896429999903, 18.262640509999098 ] } },
{ "type": "Feature", "properties": { "CVEGEO": "1203500370649800", "CVE_ENT": "12", "CVE_MUN": "035", "CVE_LOC": "0037", "CVE_AGEB": "0649", "NOMGEO": "El Tercer Mundo" }, "geometry": { "type": "Point", "coordinates": [ -99.518269629999921, 18.270606369999108 ] } },
{ "type": "Feature", "properties": { "CVEGEO": "1203501180600800", "CVE_ENT": "12", "CVE_MUN": "035", "CVE_LOC": "0118", "CVE_AGEB": "0600", "NOMGEO": "Deportivo Cañeros" }, "geometry": { "type": "Point", "coordinates": [ -99.5198190199999, 18.352043179999139 ] } },
{ "type": "Feature", "properties": { "CVEGEO": "1203501000600800", "CVE_ENT": "12", "CVE_MUN": "035", "CVE_LOC": "0100", "CVE_AGEB": "0600", "NOMGEO": "Rancho Axixintla (Casa Blanca)" }, "geometry": { "type": "Point", "coordinates": [ -99.509643509999947, 18.361443569999093 ] } },
{ "type": "Feature", "properties": { "CVEGEO": "120350097062A800", "CVE_ENT": "12", "CVE_MUN": "035", "CVE_LOC": "0097", "CVE_AGEB": "062A", "NOMGEO": "El Peñón [Granja Avícola]" }, "geometry": { "type": "Point", "coordinates": [ -99.509543689999944, 18.283581199999155 ] } },
{ "type": "Feature", "properties": { "CVEGEO": "120350153062A800", "CVE_ENT": "12", "CVE_MUN": "035", "CVE_LOC": "0153", "CVE_AGEB": "062A", "NOMGEO": "Colonia Cristo Rey" }, "geometry": { "type": "Point", "coordinates": [ -99.514438919999961, 18.281149019999095 ] } },
{ "type": "Feature", "properties": { "CVEGEO": "120350084062A800", "CVE_ENT": "12", "CVE_MUN": "035", "CVE_LOC": "0084", "CVE_AGEB": "062A", "NOMGEO": "Las Granjas (El Progreso)" }, "geometry": { "type": "Point", "coordinates": [ -99.507595679999937, 18.288339079999119 ] } },
{ "type": "Feature", "properties": { "CVEGEO": "1203500360600800", "CVE_ENT": "12", "CVE_MUN": "035", "CVE_LOC": "0036", "CVE_AGEB": "0600", "NOMGEO": "El Paraíso" }, "geometry": { "type": "Point", "coordinates": [ -99.508992689999914, 18.363414779999101 ] } },
{ "type": "Feature", "properties": { "CVEGEO": "1203500960600800", "CVE_ENT": "12", "CVE_MUN": "035", "CVE_LOC": "0096", "CVE_AGEB": "0600", "NOMGEO": "Fomento Porcino para el Estado de Guerrero" }, "geometry": { "type": "Point", "coordinates": [ -99.511950969999944, 18.362362079999112 ] } },
{ "type": "Feature", "properties": { "CVEGEO": "1203501430598800", "CVE_ENT": "12", "CVE_MUN": "035", "CVE_LOC": "0143", "CVE_AGEB": "0598", "NOMGEO": "Rancho los Tepehuajes (Pila de Franco Rueda)" }, "geometry": { "type": "Point", "coordinates": [ -99.560575, 18.365483339999113 ] } },
{ "type": "Feature", "properties": { "CVEGEO": "1203501820598800", "CVE_ENT": "12", "CVE_MUN": "035", "CVE_LOC": "0182", "CVE_AGEB": "0598", "NOMGEO": "Las Palmas" }, "geometry": { "type": "Point", "coordinates": [ -99.572358149999928, 18.369291939999108 ] } },
{ "type": "Feature", "properties": { "CVEGEO": "1203501420600800", "CVE_ENT": "12", "CVE_MUN": "035", "CVE_LOC": "0142", "CVE_AGEB": "0600", "NOMGEO": "Tonalapita del Norte (Puente González)" }, "geometry": { "type": "Point", "coordinates": [ -99.514606539999974, 18.371190769999128 ] } },
{ "type": "Feature", "properties": { "CVEGEO": "1203501170600800", "CVE_ENT": "12", "CVE_MUN": "035", "CVE_LOC": "0117", "CVE_AGEB": "0600", "NOMGEO": "Puente González Uno (Colonia los Manantiales)" }, "geometry": { "type": "Point", "coordinates": [ -99.519795709999968, 18.377449819999111 ] } },
{ "type": "Feature", "properties": { "CVEGEO": "1203501870600800", "CVE_ENT": "12", "CVE_MUN": "035", "CVE_LOC": "0187", "CVE_AGEB": "0600", "NOMGEO": "Colonia del Ángel" }, "geometry": { "type": "Point", "coordinates": [ -99.526003029999941, 18.377540199999 ] } },
{ "type": "Feature", "properties": { "CVEGEO": "120350195062A800", "CVE_ENT": "12", "CVE_MUN": "035", "CVE_LOC": "0195", "CVE_AGEB": "062A", "NOMGEO": "Colonia el Tomatal (Kilómetro 128)" }, "geometry": { "type": "Point", "coordinates": [ -99.506388889999954, 18.301666659999089 ] } },
{ "type": "Feature", "properties": { "CVEGEO": "120350196062A800", "CVE_ENT": "12", "CVE_MUN": "035", "CVE_LOC": "0196", "CVE_AGEB": "062A", "NOMGEO": "Las Granjas" }, "geometry": { "type": "Point", "coordinates": [ -99.508611109999919, 18.304166659999122 ] } },
{ "type": "Feature", "properties": { "CVEGEO": "120350088062A800", "CVE_ENT": "12", "CVE_MUN": "035", "CVE_LOC": "0088", "CVE_AGEB": "062A", "NOMGEO": "El Mancebo" }, "geometry": { "type": "Point", "coordinates": [ -99.503578509999912, 18.310489199999132 ] } },
{ "type": "Feature", "properties": { "CVEGEO": "120350042062A800", "CVE_ENT": "12", "CVE_MUN": "035", "CVE_LOC": "0042", "CVE_AGEB": "062A", "NOMGEO": "Rancho los Alacranes" }, "geometry": { "type": "Point", "coordinates": [ -99.5585140799999, 18.317720579999108 ] } },
{ "type": "Feature", "properties": { "CVEGEO": "1203501010598800", "CVE_ENT": "12", "CVE_MUN": "035", "CVE_LOC": "0101", "CVE_AGEB": "0598", "NOMGEO": "Rancho Bonifacio Valle" }, "geometry": { "type": "Point", "coordinates": [ -99.589868169999946, 18.3220946299991 ] } },
{ "type": "Feature", "properties": { "CVEGEO": "1203500690615800", "CVE_ENT": "12", "CVE_MUN": "035", "CVE_LOC": "0069", "CVE_AGEB": "0615", "NOMGEO": "La Mesa" }, "geometry": { "type": "Point", "coordinates": [ -99.495065649999916, 18.395995229999109 ] } },
{ "type": "Feature", "properties": { "CVEGEO": "120350053062A800", "CVE_ENT": "12", "CVE_MUN": "035", "CVE_LOC": "0053", "CVE_AGEB": "062A", "NOMGEO": "Colonia Mota" }, "geometry": { "type": "Point", "coordinates": [ -99.5508483699999, 18.322662719999119 ] } },
{ "type": "Feature", "properties": { "CVEGEO": "120350128062A800", "CVE_ENT": "12", "CVE_MUN": "035", "CVE_LOC": "0128", "CVE_AGEB": "062A", "NOMGEO": "Colonia CNOP Dos" }, "geometry": { "type": "Point", "coordinates": [ -99.527911509999953, 18.322259279999074 ] } },
{ "type": "Feature", "properties": { "CVEGEO": "1203500820598800", "CVE_ENT": "12", "CVE_MUN": "035", "CVE_LOC": "0082", "CVE_AGEB": "0598", "NOMGEO": "El Guamuchilar" }, "geometry": { "type": "Point", "coordinates": [ -99.563148919999932, 18.350860579999146 ] } },
{ "type": "Feature", "properties": { "CVEGEO": "1203501500600800", "CVE_ENT": "12", "CVE_MUN": "035", "CVE_LOC": "0150", "CVE_AGEB": "0600", "NOMGEO": "Colonia Periférico Oriente" }, "geometry": { "type": "Point", "coordinates": [ -99.517823419999914, 18.352847949999134 ] } },
{ "type": "Feature", "properties": { "CVEGEO": "1203501910600800", "CVE_ENT": "12", "CVE_MUN": "035", "CVE_LOC": "0191", "CVE_AGEB": "0600", "NOMGEO": "Rancho los Laureles" }, "geometry": { "type": "Point", "coordinates": [ -99.5105555499999, 18.349444449999169 ] } },
{ "type": "Feature", "properties": { "CVEGEO": "120350092062A800", "CVE_ENT": "12", "CVE_MUN": "035", "CVE_LOC": "0092", "CVE_AGEB": "062A", "NOMGEO": "Colonia el Capire" }, "geometry": { "type": "Point", "coordinates": [ -99.547877779999922, 18.324566659999153 ] } },
{ "type": "Feature", "properties": { "CVEGEO": "120350099062A800", "CVE_ENT": "12", "CVE_MUN": "035", "CVE_LOC": "0099", "CVE_AGEB": "062A", "NOMGEO": "Colonia Gobernadores" }, "geometry": { "type": "Point", "coordinates": [ -99.561525709999913, 18.326535089999119 ] } },
{ "type": "Feature", "properties": { "CVEGEO": "1203500160598800", "CVE_ENT": "12", "CVE_MUN": "035", "CVE_LOC": "0016", "CVE_AGEB": "0598", "NOMGEO": "Pueblo Viejo" }, "geometry": { "type": "Point", "coordinates": [ -99.577812919999943, 18.360759059999161 ] } },
{ "type": "Feature", "properties": { "CVEGEO": "1203501460600800", "CVE_ENT": "12", "CVE_MUN": "035", "CVE_LOC": "0146", "CVE_AGEB": "0600", "NOMGEO": "Ninguno [La Granja Porcina]" }, "geometry": { "type": "Point", "coordinates": [ -99.510085309999923, 18.360166689999115 ] } },
{ "type": "Feature", "properties": { "CVEGEO": "1203501850598800", "CVE_ENT": "12", "CVE_MUN": "035", "CVE_LOC": "0185", "CVE_AGEB": "0598", "NOMGEO": "Colosio" }, "geometry": { "type": "Point", "coordinates": [ -99.578888889999959, 18.362777769999092 ] } },
{ "type": "Feature", "properties": { "CVEGEO": "1203500040634800", "CVE_ENT": "12", "CVE_MUN": "035", "CVE_LOC": "0004", "CVE_AGEB": "0634", "NOMGEO": "El Capire de Santa Ana" }, "geometry": { "type": "Point", "coordinates": [ -99.6313735199999, 18.257737459999149 ] } },
{ "type": "Feature", "properties": { "CVEGEO": "120350027062A800", "CVE_ENT": "12", "CVE_MUN": "035", "CVE_LOC": "0027", "CVE_AGEB": "062A", "NOMGEO": "El Cirián" }, "geometry": { "type": "Point", "coordinates": [ -99.516507539999935, 18.277298149999112 ] } },
{ "type": "Feature", "properties": { "CVEGEO": "120350106062A800", "CVE_ENT": "12", "CVE_MUN": "035", "CVE_LOC": "0106", "CVE_AGEB": "062A", "NOMGEO": "Rincón del Marqués" }, "geometry": { "type": "Point", "coordinates": [ -99.559735689999954, 18.318721799999111 ] } },
{ "type": "Feature", "properties": { "CVEGEO": "1203500750598800", "CVE_ENT": "12", "CVE_MUN": "035", "CVE_LOC": "0075", "CVE_AGEB": "0598", "NOMGEO": "Los Guajes (La Cañada)" }, "geometry": { "type": "Point", "coordinates": [ -99.582770479999922, 18.34728817999914 ] } },
{ "type": "Feature", "properties": { "CVEGEO": "1203501200600800", "CVE_ENT": "12", "CVE_MUN": "035", "CVE_LOC": "0120", "CVE_AGEB": "0600", "NOMGEO": "Huerta Emilio González (Píndaro Urióstegui)" }, "geometry": { "type": "Point", "coordinates": [ -99.517790799999901, 18.34701568999909 ] } },
{ "type": "Feature", "properties": { "CVEGEO": "1203501190600800", "CVE_ENT": "12", "CVE_MUN": "035", "CVE_LOC": "0119", "CVE_AGEB": "0600", "NOMGEO": "Colonia el Paraíso Uno (Materiales Caslem)" }, "geometry": { "type": "Point", "coordinates": [ -99.5200968299999, 18.350376649999124 ] } },
{ "type": "Feature", "properties": { "CVEGEO": "1203501050649800", "CVE_ENT": "12", "CVE_MUN": "035", "CVE_LOC": "0105", "CVE_AGEB": "0649", "NOMGEO": "Chiquilla [Restaurante]" }, "geometry": { "type": "Point", "coordinates": [ -99.53586868, 18.207158799999142 ] } },
{ "type": "Feature", "properties": { "CVEGEO": "1203501710649800", "CVE_ENT": "12", "CVE_MUN": "035", "CVE_LOC": "0171", "CVE_AGEB": "0649", "NOMGEO": "El Conejo" }, "geometry": { "type": "Point", "coordinates": [ -99.527022969999948, 18.205499999999091 ] } },
{ "type": "Feature", "properties": { "CVEGEO": "1203500930600800", "CVE_ENT": "12", "CVE_MUN": "035", "CVE_LOC": "0093", "CVE_AGEB": "0600", "NOMGEO": "La Compuerta de la Laguna de Tuxpan" }, "geometry": { "type": "Point", "coordinates": [ -99.514423519999937, 18.351611799999127 ] } },
{ "type": "Feature", "properties": { "CVEGEO": "1203501030600800", "CVE_ENT": "12", "CVE_MUN": "035", "CVE_LOC": "0103", "CVE_AGEB": "0600", "NOMGEO": "Huerta Ismael" }, "geometry": { "type": "Point", "coordinates": [ -99.510482399999901, 18.358933519999088 ] } },
{ "type": "Feature", "properties": { "CVEGEO": "1203501040600800", "CVE_ENT": "12", "CVE_MUN": "035", "CVE_LOC": "0104", "CVE_AGEB": "0600", "NOMGEO": "Rancho José Juanche Mojica (Rancho el Campanario)" }, "geometry": { "type": "Point", "coordinates": [ -99.5064474799999, 18.35736564999916 ] } },
{ "type": "Feature", "properties": { "CVEGEO": "120350087062A800", "CVE_ENT": "12", "CVE_MUN": "035", "CVE_LOC": "0087", "CVE_AGEB": "062A", "NOMGEO": "Las Palmas [Restaurante]" }, "geometry": { "type": "Point", "coordinates": [ -99.503366449999945, 18.307706539999103 ] } },
{ "type": "Feature", "properties": { "CVEGEO": "1203500710649800", "CVE_ENT": "12", "CVE_MUN": "035", "CVE_LOC": "0071", "CVE_AGEB": "0649", "NOMGEO": "Barranca de San José" }, "geometry": { "type": "Point", "coordinates": [ -99.522953169999894, 18.22052244999907 ] } },
{ "type": "Feature", "properties": { "CVEGEO": "1203500810649800", "CVE_ENT": "12", "CVE_MUN": "035", "CVE_LOC": "0081", "CVE_AGEB": "0649", "NOMGEO": "Tecoyametla (Tecoya)" }, "geometry": { "type": "Point", "coordinates": [ -99.491422569999926, 18.214657709999095 ] } },
{ "type": "Feature", "properties": { "CVEGEO": "1203500300649800", "CVE_ENT": "12", "CVE_MUN": "035", "CVE_LOC": "0030", "CVE_AGEB": "0649", "NOMGEO": "Kristal [Restaurante]" }, "geometry": { "type": "Point", "coordinates": [ -99.531466339999938, 18.233102679999146 ] } },
{ "type": "Feature", "properties": { "CVEGEO": "1203500480649800", "CVE_ENT": "12", "CVE_MUN": "035", "CVE_LOC": "0048", "CVE_AGEB": "0649", "NOMGEO": "El Mango" }, "geometry": { "type": "Point", "coordinates": [ -99.516272199999904, 18.23255050999914 ] } },
{ "type": "Feature", "properties": { "CVEGEO": "1203501080598800", "CVE_ENT": "12", "CVE_MUN": "035", "CVE_LOC": "0108", "CVE_AGEB": "0598", "NOMGEO": "El Trapiche" }, "geometry": { "type": "Point", "coordinates": [ -99.570505259999933, 18.331252049999122 ] } },
{ "type": "Feature", "properties": { "CVEGEO": "120350125062A800", "CVE_ENT": "12", "CVE_MUN": "035", "CVE_LOC": "0125", "CVE_AGEB": "062A", "NOMGEO": "El Amate" }, "geometry": { "type": "Point", "coordinates": [ -99.542409289999952, 18.330561769999104 ] } },
{ "type": "Feature", "properties": { "CVEGEO": "1203500190615800", "CVE_ENT": "12", "CVE_MUN": "035", "CVE_LOC": "0019", "CVE_AGEB": "0615", "NOMGEO": "Tepantlán" }, "geometry": { "type": "Point", "coordinates": [ -99.486021489999942, 18.334547619999089 ] } },
{ "type": "Feature", "properties": { "CVEGEO": "120350102062A800", "CVE_ENT": "12", "CVE_MUN": "035", "CVE_LOC": "0102", "CVE_AGEB": "062A", "NOMGEO": "Rancho Eduardo Román" }, "geometry": { "type": "Point", "coordinates": [ -99.565045199999943, 18.332809539999079 ] } },
{ "type": "Feature", "properties": { "CVEGEO": "120350109062A800", "CVE_ENT": "12", "CVE_MUN": "035", "CVE_LOC": "0109", "CVE_AGEB": "062A", "NOMGEO": "Huerta Velázquez" }, "geometry": { "type": "Point", "coordinates": [ -99.547358949999975, 18.331703149999139 ] } },
{ "type": "Feature", "properties": { "CVEGEO": "120350160062A800", "CVE_ENT": "12", "CVE_MUN": "035", "CVE_LOC": "0160", "CVE_AGEB": "062A", "NOMGEO": "Colonia Martín Aceves González" }, "geometry": { "type": "Point", "coordinates": [ -99.557702479999946, 18.336192709999096 ] } },
{ "type": "Feature", "properties": { "CVEGEO": "120350194062A800", "CVE_ENT": "12", "CVE_MUN": "035", "CVE_LOC": "0194", "CVE_AGEB": "062A", "NOMGEO": "Eufemio Zapata" }, "geometry": { "type": "Point", "coordinates": [ -99.549444449999939, 18.320555549999149 ] } },
{ "type": "Feature", "properties": { "CVEGEO": "1203501800598800", "CVE_ENT": "12", "CVE_MUN": "035", "CVE_LOC": "0180", "CVE_AGEB": "0598", "NOMGEO": "Ampliación Jardín Pueblo Viejo" }, "geometry": { "type": "Point", "coordinates": [ -99.575555549999976, 18.366111109999149 ] } },
{ "type": "Feature", "properties": { "CVEGEO": "1203501840598800", "CVE_ENT": "12", "CVE_MUN": "035", "CVE_LOC": "0184", "CVE_AGEB": "0598", "NOMGEO": "El Cielo de Cheguevara" }, "geometry": { "type": "Point", "coordinates": [ -99.580555549999943, 18.364999999999139 ] } },
{ "type": "Feature", "properties": { "CVEGEO": "1203501330668800", "CVE_ENT": "12", "CVE_MUN": "035", "CVE_LOC": "0133", "CVE_AGEB": "0668", "NOMGEO": "Peña Colorada" }, "geometry": { "type": "Point", "coordinates": [ -99.635872479999946, 18.081890739999121 ] } },
{ "type": "Feature", "properties": { "CVEGEO": "1203501340668800", "CVE_ENT": "12", "CVE_MUN": "035", "CVE_LOC": "0134", "CVE_AGEB": "0668", "NOMGEO": "Huerta Alfonso Salgado" }, "geometry": { "type": "Point", "coordinates": [ -99.637539179999948, 18.083835079999098 ] } },
{ "type": "Feature", "properties": { "CVEGEO": "1203501550600800", "CVE_ENT": "12", "CVE_MUN": "035", "CVE_LOC": "0155", "CVE_AGEB": "0600", "NOMGEO": "Ranchito Hermanos Ayala Bandera" }, "geometry": { "type": "Point", "coordinates": [ -99.517112349999948, 18.3692947199991 ] } },
{ "type": "Feature", "properties": { "CVEGEO": "1203501780598800", "CVE_ENT": "12", "CVE_MUN": "035", "CVE_LOC": "0178", "CVE_AGEB": "0598", "NOMGEO": "San Antonio" }, "geometry": { "type": "Point", "coordinates": [ -99.556983569999915, 18.372823119999161 ] } },
{ "type": "Feature", "properties": { "CVEGEO": "1203501810598800", "CVE_ENT": "12", "CVE_MUN": "035", "CVE_LOC": "0181", "CVE_AGEB": "0598", "NOMGEO": "La Joya" }, "geometry": { "type": "Point", "coordinates": [ -99.5583101799999, 18.371257849999125 ] } },
{ "type": "Feature", "properties": { "CVEGEO": "1203501920598800", "CVE_ENT": "12", "CVE_MUN": "035", "CVE_LOC": "0192", "CVE_AGEB": "0598", "NOMGEO": "El Manantial" }, "geometry": { "type": "Point", "coordinates": [ -99.531008339999929, 18.375499999999125 ] } },
{ "type": "Feature", "properties": { "CVEGEO": "120350064062A800", "CVE_ENT": "12", "CVE_MUN": "035", "CVE_LOC": "0064", "CVE_AGEB": "062A", "NOMGEO": "Puente del Terrero" }, "geometry": { "type": "Point", "coordinates": [ -99.553625449999956, 18.331871459999135 ] } },
{ "type": "Feature", "properties": { "CVEGEO": "1203500650649800", "CVE_ENT": "12", "CVE_MUN": "035", "CVE_LOC": "0065", "CVE_AGEB": "0649", "NOMGEO": "San Miguel" }, "geometry": { "type": "Point", "coordinates": [ -99.525762659999913, 18.203893949999134 ] } },
{ "type": "Feature", "properties": { "CVEGEO": "1203501880600800", "CVE_ENT": "12", "CVE_MUN": "035", "CVE_LOC": "0188", "CVE_AGEB": "0600", "NOMGEO": "Colonia Tonalapita Sur" }, "geometry": { "type": "Point", "coordinates": [ -99.521944449999964, 18.373611109999146 ] } },
{ "type": "Feature", "properties": { "CVEGEO": "1203501690600800", "CVE_ENT": "12", "CVE_MUN": "035", "CVE_LOC": "0169", "CVE_AGEB": "0600", "NOMGEO": "Los Campos" }, "geometry": { "type": "Point", "coordinates": [ -99.5256450299999, 18.376195029999142 ] } },
{ "type": "Feature", "properties": { "CVEGEO": "1203501770598800", "CVE_ENT": "12", "CVE_MUN": "035", "CVE_LOC": "0177", "CVE_AGEB": "0598", "NOMGEO": "San Miguel" }, "geometry": { "type": "Point", "coordinates": [ -99.550311709999946, 18.376035309999178 ] } },
{ "type": "Feature", "properties": { "CVEGEO": "1203501900600800", "CVE_ENT": "12", "CVE_MUN": "035", "CVE_LOC": "0190", "CVE_AGEB": "0600", "NOMGEO": "Filadelfia" }, "geometry": { "type": "Point", "coordinates": [ -99.516388889999931, 18.374166659999155 ] } },
{ "type": "Feature", "properties": { "CVEGEO": "1203501890600800", "CVE_ENT": "12", "CVE_MUN": "035", "CVE_LOC": "0189", "CVE_AGEB": "0600", "NOMGEO": "Puerto del Aire" }, "geometry": { "type": "Point", "coordinates": [ -99.5125, 18.371944449999123 ] } },
{ "type": "Feature", "properties": { "CVEGEO": "1203500320668800", "CVE_ENT": "12", "CVE_MUN": "035", "CVE_LOC": "0032", "CVE_AGEB": "0668", "NOMGEO": "El Guayabo" }, "geometry": { "type": "Point", "coordinates": [ -99.672856819999907, 18.098008779999127 ] } },
{ "type": "Feature", "properties": { "CVEGEO": "1203501860600800", "CVE_ENT": "12", "CVE_MUN": "035", "CVE_LOC": "0186", "CVE_AGEB": "0600", "NOMGEO": "Colonia Lomas Campestre" }, "geometry": { "type": "Point", "coordinates": [ -99.521944449999964, 18.383611109999112 ] } },
{ "type": "Feature", "properties": { "CVEGEO": "1203501930598800", "CVE_ENT": "12", "CVE_MUN": "035", "CVE_LOC": "0193", "CVE_AGEB": "0598", "NOMGEO": "Rancho el Mirador (Eugenio Gutiérrez Antúnez)" }, "geometry": { "type": "Point", "coordinates": [ -99.538888889999924, 18.383611109999112 ] } },
{ "type": "Feature", "properties": { "CVEGEO": "1203500050598800", "CVE_ENT": "12", "CVE_MUN": "035", "CVE_LOC": "0005", "CVE_AGEB": "0598", "NOMGEO": "Colonia el Carmen" }, "geometry": { "type": "Point", "coordinates": [ -99.553873149999916, 18.414535109999093 ] } },
{ "type": "Feature", "properties": { "CVEGEO": "1203500730649800", "CVE_ENT": "12", "CVE_MUN": "035", "CVE_LOC": "0073", "CVE_AGEB": "0649", "NOMGEO": "El Calvario" }, "geometry": { "type": "Point", "coordinates": [ -99.498487919999917, 18.234545219999134 ] } },
{ "type": "Feature", "properties": { "CVEGEO": "1203500740634800", "CVE_ENT": "12", "CVE_MUN": "035", "CVE_LOC": "0074", "CVE_AGEB": "0634", "NOMGEO": "David Martínez" }, "geometry": { "type": "Point", "coordinates": [ -99.623739659999913, 18.294233889999102 ] } },
{ "type": "Feature", "properties": { "CVEGEO": "1203500760668800", "CVE_ENT": "12", "CVE_MUN": "035", "CVE_LOC": "0076", "CVE_AGEB": "0668", "NOMGEO": "Loma de los Chamoles" }, "geometry": { "type": "Point", "coordinates": [ -99.604939819999942, 18.10525913999912 ] } },
{ "type": "Feature", "properties": { "CVEGEO": "1203500890668800", "CVE_ENT": "12", "CVE_MUN": "035", "CVE_LOC": "0089", "CVE_AGEB": "0668", "NOMGEO": "Agua del Perro" }, "geometry": { "type": "Point", "coordinates": [ -99.614890429999903, 18.092346169999107 ] } },
{ "type": "Feature", "properties": { "CVEGEO": "1201500380063800", "CVE_ENT": "12", "CVE_MUN": "015", "CVE_LOC": "0038", "CVE_AGEB": "0063", "NOMGEO": "Los Pinos" }, "geometry": { "type": "Point", "coordinates": [ -99.422803079999895, 18.483118459999123 ] } },
{ "type": "Feature", "properties": { "CVEGEO": "1201500630063800", "CVE_ENT": "12", "CVE_MUN": "015", "CVE_LOC": "0063", "CVE_AGEB": "0063", "NOMGEO": "La Peña Blanca (El Rincón)" }, "geometry": { "type": "Point", "coordinates": [ -99.430860879999912, 18.483247459999095 ] } },
{ "type": "Feature", "properties": { "CVEGEO": "1201500360063800", "CVE_ENT": "12", "CVE_MUN": "015", "CVE_LOC": "0036", "CVE_AGEB": "0063", "NOMGEO": "Las Flores" }, "geometry": { "type": "Point", "coordinates": [ -99.417542579999932, 18.491797349999132 ] } },
{ "type": "Feature", "properties": { "CVEGEO": "1201500030063800", "CVE_ENT": "12", "CVE_MUN": "015", "CVE_LOC": "0003", "CVE_AGEB": "0063", "NOMGEO": "El Platanal (El Platanar)" }, "geometry": { "type": "Point", "coordinates": [ -99.422308569999942, 18.502048509999124 ] } },
{ "type": "Feature", "properties": { "CVEGEO": "1201500400078800", "CVE_ENT": "12", "CVE_MUN": "015", "CVE_LOC": "0040", "CVE_AGEB": "0078", "NOMGEO": "Los Sabinos" }, "geometry": { "type": "Point", "coordinates": [ -99.467806089999911, 18.520189479999129 ] } },
{ "type": "Feature", "properties": { "CVEGEO": "1201500590063800", "CVE_ENT": "12", "CVE_MUN": "015", "CVE_LOC": "0059", "CVE_AGEB": "0063", "NOMGEO": "San Rafael (La Alberca)" }, "geometry": { "type": "Point", "coordinates": [ -99.411415059999925, 18.513800289999136 ] } },
{ "type": "Feature", "properties": { "CVEGEO": "1201500610063800", "CVE_ENT": "12", "CVE_MUN": "015", "CVE_LOC": "0061", "CVE_AGEB": "0063", "NOMGEO": "El Encino" }, "geometry": { "type": "Point", "coordinates": [ -99.410581479999948, 18.525188249999108 ] } },
{ "type": "Feature", "properties": { "CVEGEO": "1201500810063800", "CVE_ENT": "12", "CVE_MUN": "015", "CVE_LOC": "0081", "CVE_AGEB": "0063", "NOMGEO": "La Escondida (Rancho la Escondida)" }, "geometry": { "type": "Point", "coordinates": [ -99.431008139999946, 18.537006309999128 ] } },
{ "type": "Feature", "properties": { "CVEGEO": "1201500390063800", "CVE_ENT": "12", "CVE_MUN": "015", "CVE_LOC": "0039", "CVE_AGEB": "0063", "NOMGEO": "Pozo Hondo (San Nicolás)" }, "geometry": { "type": "Point", "coordinates": [ -99.448915829999933, 18.5521310799991 ] } },
{ "type": "Feature", "properties": { "CVEGEO": "1201500550063800", "CVE_ENT": "12", "CVE_MUN": "015", "CVE_LOC": "0055", "CVE_AGEB": "0063", "NOMGEO": "San Isidro (La Hacienda de San Isidro)" }, "geometry": { "type": "Point", "coordinates": [ -99.418225919999927, 18.546569139999111 ] } },
{ "type": "Feature", "properties": { "CVEGEO": "1201500120082800", "CVE_ENT": "12", "CVE_MUN": "015", "CVE_LOC": "0012", "CVE_AGEB": "0082", "NOMGEO": "La Huizachera" }, "geometry": { "type": "Point", "coordinates": [ -99.4118718499999, 18.404612879999135 ] } },
{ "type": "Feature", "properties": { "CVEGEO": "1201500320082800", "CVE_ENT": "12", "CVE_MUN": "015", "CVE_LOC": "0032", "CVE_AGEB": "0082", "NOMGEO": "Las Mesas (Rancho Alegre)" }, "geometry": { "type": "Point", "coordinates": [ -99.4226153499999, 18.413968549999126 ] } },
{ "type": "Feature", "properties": { "CVEGEO": "1201500540082800", "CVE_ENT": "12", "CVE_MUN": "015", "CVE_LOC": "0054", "CVE_AGEB": "0082", "NOMGEO": "El Amate del Encanto" }, "geometry": { "type": "Point", "coordinates": [ -99.475267149999937, 18.426613719999086 ] } },
{ "type": "Feature", "properties": { "CVEGEO": "1201500780082800", "CVE_ENT": "12", "CVE_MUN": "015", "CVE_LOC": "0078", "CVE_AGEB": "0082", "NOMGEO": "El Puente [Granja Avícola el Peñón Módulo]" }, "geometry": { "type": "Point", "coordinates": [ -99.475030379999922, 18.419364249999106 ] } },
{ "type": "Feature", "properties": { "CVEGEO": "1201500310097800", "CVE_ENT": "12", "CVE_MUN": "015", "CVE_LOC": "0031", "CVE_AGEB": "0097", "NOMGEO": "Los Sauces" }, "geometry": { "type": "Point", "coordinates": [ -99.294745179999907, 18.425472289999153 ] } },
{ "type": "Feature", "properties": { "CVEGEO": "1201500410082800", "CVE_ENT": "12", "CVE_MUN": "015", "CVE_LOC": "0041", "CVE_AGEB": "0082", "NOMGEO": "Zozoquitla" }, "geometry": { "type": "Point", "coordinates": [ -99.468255479999939, 18.42784507999912 ] } },
{ "type": "Feature", "properties": { "CVEGEO": "1201500270082800", "CVE_ENT": "12", "CVE_MUN": "015", "CVE_LOC": "0027", "CVE_AGEB": "0082", "NOMGEO": "Pimentel" }, "geometry": { "type": "Point", "coordinates": [ -99.473363399999968, 18.435196309999082 ] } },
{ "type": "Feature", "properties": { "CVEGEO": "1201500330082800", "CVE_ENT": "12", "CVE_MUN": "015", "CVE_LOC": "0033", "CVE_AGEB": "0082", "NOMGEO": "El Amate Pollero" }, "geometry": { "type": "Point", "coordinates": [ -99.423032309999897, 18.438261339999126 ] } },
{ "type": "Feature", "properties": { "CVEGEO": "1201500450082800", "CVE_ENT": "12", "CVE_MUN": "015", "CVE_LOC": "0045", "CVE_AGEB": "0082", "NOMGEO": "Agua del Toro" }, "geometry": { "type": "Point", "coordinates": [ -99.448493629999945, 18.447946019999161 ] } },
{ "type": "Feature", "properties": { "CVEGEO": "1201500300097800", "CVE_ENT": "12", "CVE_MUN": "015", "CVE_LOC": "0030", "CVE_AGEB": "0097", "NOMGEO": "Rancho Nuevo" }, "geometry": { "type": "Point", "coordinates": [ -99.348635849999923, 18.452970889999154 ] } },
{ "type": "Feature", "properties": { "CVEGEO": "1201500080097800", "CVE_ENT": "12", "CVE_MUN": "015", "CVE_LOC": "0008", "CVE_AGEB": "0097", "NOMGEO": "El Comal [El Paraje del Comal]" }, "geometry": { "type": "Point", "coordinates": [ -99.282118979999908, 18.454967799999174 ] } },
{ "type": "Feature", "properties": { "CVEGEO": "1201500640097800", "CVE_ENT": "12", "CVE_MUN": "015", "CVE_LOC": "0064", "CVE_AGEB": "0097", "NOMGEO": "Las Mesas (Cerro Frío)" }, "geometry": { "type": "Point", "coordinates": [ -99.288633249999947, 18.457136369999141 ] } },
{ "type": "Feature", "properties": { "CVEGEO": "1201500530082800", "CVE_ENT": "12", "CVE_MUN": "015", "CVE_LOC": "0053", "CVE_AGEB": "0082", "NOMGEO": "Luis Chávez Merlo" }, "geometry": { "type": "Point", "coordinates": [ -99.424455659999936, 18.464892309999122 ] } },
{ "type": "Feature", "properties": { "CVEGEO": "1201500340082800", "CVE_ENT": "12", "CVE_MUN": "015", "CVE_LOC": "0034", "CVE_AGEB": "0082", "NOMGEO": "Atexca" }, "geometry": { "type": "Point", "coordinates": [ -99.456696709999946, 18.397421259999113 ] } },
{ "type": "Feature", "properties": { "CVEGEO": "1201500560082800", "CVE_ENT": "12", "CVE_MUN": "015", "CVE_LOC": "0056", "CVE_AGEB": "0082", "NOMGEO": "Zacazonapa (El Rancho los Pilinques)" }, "geometry": { "type": "Point", "coordinates": [ -99.432552279999939, 18.453900879999125 ] } },
{ "type": "Feature", "properties": { "CVEGEO": "1201500440063800", "CVE_ENT": "12", "CVE_MUN": "015", "CVE_LOC": "0044", "CVE_AGEB": "0063", "NOMGEO": "Agua Bendita" }, "geometry": { "type": "Point", "coordinates": [ -99.432936709999964, 18.51897977999911 ] } },
{ "type": "Feature", "properties": { "CVEGEO": "1201500460097800", "CVE_ENT": "12", "CVE_MUN": "015", "CVE_LOC": "0046", "CVE_AGEB": "0097", "NOMGEO": "Las Enramadas" }, "geometry": { "type": "Point", "coordinates": [ -99.285439279999949, 18.433389309999129 ] } },
{ "type": "Feature", "properties": { "CVEGEO": "1201500110097800", "CVE_ENT": "12", "CVE_MUN": "015", "CVE_LOC": "0011", "CVE_AGEB": "0097", "NOMGEO": "La Estancia (La Estancia de las Vacas)" }, "geometry": { "type": "Point", "coordinates": [ -99.390860049999944, 18.439639229999145 ] } },
{ "type": "Feature", "properties": { "CVEGEO": "1201500190097800", "CVE_ENT": "12", "CVE_MUN": "015", "CVE_LOC": "0019", "CVE_AGEB": "0097", "NOMGEO": "El Salitre" }, "geometry": { "type": "Point", "coordinates": [ -99.3278874599999, 18.437016829999152 ] } },
{ "type": "Feature", "properties": { "CVEGEO": "1201500740082800", "CVE_ENT": "12", "CVE_MUN": "015", "CVE_LOC": "0074", "CVE_AGEB": "0082", "NOMGEO": "El Aguacate [Antena de Microondas]" }, "geometry": { "type": "Point", "coordinates": [ -99.415120319999929, 18.445105279999165 ] } },
{ "type": "Feature", "properties": { "CVEGEO": "1201500820063800", "CVE_ENT": "12", "CVE_MUN": "015", "CVE_LOC": "0082", "CVE_AGEB": "0063", "NOMGEO": "El Guerrerense [Restaurante]" }, "geometry": { "type": "Point", "coordinates": [ -99.427706479999955, 18.555771919999113 ] } },
{ "type": "Feature", "properties": { "CVEGEO": "1201500200082800", "CVE_ENT": "12", "CVE_MUN": "015", "CVE_LOC": "0020", "CVE_AGEB": "0082", "NOMGEO": "San Lucas" }, "geometry": { "type": "Point", "coordinates": [ -99.466221139999945, 18.397385799999114 ] } },
{ "type": "Feature", "properties": { "CVEGEO": "1201500490063800", "CVE_ENT": "12", "CVE_MUN": "015", "CVE_LOC": "0049", "CVE_AGEB": "0063", "NOMGEO": "Las Joyas (La Parada del Caballo)" }, "geometry": { "type": "Point", "coordinates": [ -99.417893779999943, 18.496251689999127 ] } },
{ "type": "Feature", "properties": { "CVEGEO": "1201500180063800", "CVE_ENT": "12", "CVE_MUN": "015", "CVE_LOC": "0018", "CVE_AGEB": "0063", "NOMGEO": "Rincón de las Nueces" }, "geometry": { "type": "Point", "coordinates": [ -99.401692629999914, 18.504078709999142 ] } },
{ "type": "Feature", "properties": { "CVEGEO": "1201500350078800", "CVE_ENT": "12", "CVE_MUN": "015", "CVE_LOC": "0035", "CVE_AGEB": "0078", "NOMGEO": "La Cumbre (El Puerto)" }, "geometry": { "type": "Point", "coordinates": [ -99.487292679999911, 18.402448459999125 ] } },
{ "type": "Feature", "properties": { "CVEGEO": "1201500500097800", "CVE_ENT": "12", "CVE_MUN": "015", "CVE_LOC": "0050", "CVE_AGEB": "0097", "NOMGEO": "Loma la Carrera" }, "geometry": { "type": "Point", "coordinates": [ -99.349469349999964, 18.445471509999145 ] } },
{ "type": "Feature", "properties": { "CVEGEO": "1201500520097800", "CVE_ENT": "12", "CVE_MUN": "015", "CVE_LOC": "0052", "CVE_AGEB": "0097", "NOMGEO": "El Rodeo" }, "geometry": { "type": "Point", "coordinates": [ -99.336968829999961, 18.445193569999152 ] } },
{ "type": "Feature", "properties": { "CVEGEO": "1201500470097800", "CVE_ENT": "12", "CVE_MUN": "015", "CVE_LOC": "0047", "CVE_AGEB": "0097", "NOMGEO": "La Escondida (Rancho Escondida)" }, "geometry": { "type": "Point", "coordinates": [ -99.290855719999925, 18.44880371999913 ] } },
{ "type": "Feature", "properties": { "CVEGEO": "1201500730082800", "CVE_ENT": "12", "CVE_MUN": "015", "CVE_LOC": "0073", "CVE_AGEB": "0082", "NOMGEO": "La Fundición" }, "geometry": { "type": "Point", "coordinates": [ -99.413239659999945, 18.448575659999161 ] } },
{ "type": "Feature", "properties": { "CVEGEO": "1201500170097800", "CVE_ENT": "12", "CVE_MUN": "015", "CVE_LOC": "0017", "CVE_AGEB": "0097", "NOMGEO": "Los Redondeados" }, "geometry": { "type": "Point", "coordinates": [ -99.399194109999897, 18.416585599999131 ] } },
{ "type": "Feature", "properties": { "CVEGEO": "1201500480063800", "CVE_ENT": "12", "CVE_MUN": "015", "CVE_LOC": "0048", "CVE_AGEB": "0063", "NOMGEO": "Ixtlahuaca" }, "geometry": { "type": "Point", "coordinates": [ -99.4413232499999, 18.532379599999128 ] } },
{ "type": "Feature", "properties": { "CVEGEO": "1201500100097800", "CVE_ENT": "12", "CVE_MUN": "015", "CVE_LOC": "0010", "CVE_AGEB": "0097", "NOMGEO": "Los Epazotes" }, "geometry": { "type": "Point", "coordinates": [ -99.342529379999959, 18.460366799999115 ] } },
{ "type": "Feature", "properties": { "CVEGEO": "1201500370097800", "CVE_ENT": "12", "CVE_MUN": "015", "CVE_LOC": "0037", "CVE_AGEB": "0097", "NOMGEO": "Las Mesas" }, "geometry": { "type": "Point", "coordinates": [ -99.392526419999939, 18.459915429999086 ] } },
{ "type": "Feature", "properties": { "CVEGEO": "1201500250097800", "CVE_ENT": "12", "CVE_MUN": "015", "CVE_LOC": "0025", "CVE_AGEB": "0097", "NOMGEO": "El Zapote" }, "geometry": { "type": "Point", "coordinates": [ -99.331274489999927, 18.467737479999119 ] } },
{ "type": "Feature", "properties": { "CVEGEO": "1201500770063800", "CVE_ENT": "12", "CVE_MUN": "015", "CVE_LOC": "0077", "CVE_AGEB": "0063", "NOMGEO": "La Bodega" }, "geometry": { "type": "Point", "coordinates": [ -99.443306969999966, 18.525078379999101 ] } },
{ "type": "Feature", "properties": { "CVEGEO": "1201500800063800", "CVE_ENT": "12", "CVE_MUN": "015", "CVE_LOC": "0080", "CVE_AGEB": "0063", "NOMGEO": "Bar Azteca [Restaurante]" }, "geometry": { "type": "Point", "coordinates": [ -99.438267279999963, 18.523520659999075 ] } },
{ "type": "Feature", "properties": { "CVEGEO": "1201500220082800", "CVE_ENT": "12", "CVE_MUN": "015", "CVE_LOC": "0022", "CVE_AGEB": "0082", "NOMGEO": "Tlajocopan" }, "geometry": { "type": "Point", "coordinates": [ -99.437251289999921, 18.40908673999915 ] } },
{ "type": "Feature", "properties": { "CVEGEO": "1201500020082800", "CVE_ENT": "12", "CVE_MUN": "015", "CVE_LOC": "0002", "CVE_AGEB": "0082", "NOMGEO": "El Aguacate" }, "geometry": { "type": "Point", "coordinates": [ -99.416906169999919, 18.442620909999118 ] } },
{ "type": "Feature", "properties": { "CVEGEO": "1201500790063800", "CVE_ENT": "12", "CVE_MUN": "015", "CVE_LOC": "0079", "CVE_AGEB": "0063", "NOMGEO": "La Parada de la Venta (Rancho Rodolfo Uribe)" }, "geometry": { "type": "Point", "coordinates": [ -99.425490079999932, 18.478993909999094 ] } },
{ "type": "Feature", "properties": { "CVEGEO": "1201500580063800", "CVE_ENT": "12", "CVE_MUN": "015", "CVE_LOC": "0058", "CVE_AGEB": "0063", "NOMGEO": "El Campamento la Ocho" }, "geometry": { "type": "Point", "coordinates": [ -99.414977649999926, 18.557667679999117 ] } },
{ "type": "Feature", "properties": { "CVEGEO": "1201500600082800", "CVE_ENT": "12", "CVE_MUN": "015", "CVE_LOC": "0060", "CVE_AGEB": "0082", "NOMGEO": "El Carrizalillo" }, "geometry": { "type": "Point", "coordinates": [ -99.422333139999935, 18.42682333999911 ] } },
{ "type": "Feature", "properties": { "CVEGEO": "1201500700097800", "CVE_ENT": "12", "CVE_MUN": "015", "CVE_LOC": "0070", "CVE_AGEB": "0097", "NOMGEO": "Rancho Don Agustín" }, "geometry": { "type": "Point", "coordinates": [ -99.397248849999968, 18.458526719999139 ] } },
{ "type": "Feature", "properties": { "CVEGEO": "1201500130063800", "CVE_ENT": "12", "CVE_MUN": "015", "CVE_LOC": "0013", "CVE_AGEB": "0063", "NOMGEO": "Los Limones" }, "geometry": { "type": "Point", "coordinates": [ -99.438655649999944, 18.51468859999914 ] } },
{ "type": "Feature", "properties": { "CVEGEO": "1201500680063800", "CVE_ENT": "12", "CVE_MUN": "015", "CVE_LOC": "0068", "CVE_AGEB": "0063", "NOMGEO": "Huerta Juan Téllez (El Paso)" }, "geometry": { "type": "Point", "coordinates": [ -99.399843, 18.465589449999108 ] } },