{
"type": "FeatureCollection",
"crs": { "type": "name", "properties": { "name": "urn:ogc:def:crs:OGC:1.3:CRS84" } },
                                                                                
"features": [
{ "type": "Feature", "properties": { "CVEGEO": "2905700060035800", "CVE_ENT": "29", "CVE_MUN": "057", "CVE_LOC": "0006", "CVE_AGEB": "0035", "NOMGEO": "San Juan" }, "geometry": { "type": "Point", "coordinates": [ -98.319513969999903, 19.257559879999096 ] } },
{ "type": "Feature", "properties": { "CVEGEO": "2905700020035800", "CVE_ENT": "29", "CVE_MUN": "057", "CVE_LOC": "0002", "CVE_AGEB": "0035", "NOMGEO": "La Arena" }, "geometry": { "type": "Point", "coordinates": [ -98.306106109999959, 19.239022019999116 ] } },
{ "type": "Feature", "properties": { "CVEGEO": "2905700040035800", "CVE_ENT": "29", "CVE_MUN": "057", "CVE_LOC": "0004", "CVE_AGEB": "0035", "NOMGEO": "La Loma" }, "geometry": { "type": "Point", "coordinates": [ -98.316474379999974, 19.243937919999148 ] } },
{ "type": "Feature", "properties": { "CVEGEO": "2905700070035800", "CVE_ENT": "29", "CVE_MUN": "057", "CVE_LOC": "0007", "CVE_AGEB": "0035", "NOMGEO": "Techichilco" }, "geometry": { "type": "Point", "coordinates": [ -98.315938679999974, 19.246073369999113 ] } },
{ "type": "Feature", "properties": { "CVEGEO": "2905700080035800", "CVE_ENT": "29", "CVE_MUN": "057", "CVE_LOC": "0008", "CVE_AGEB": "0035", "NOMGEO": "La Besana de Tepetitla" }, "geometry": { "type": "Point", "coordinates": [ -98.310003519999924, 19.233024569999117 ] } },
{ "type": "Feature", "properties": { "CVEGEO": "2905700090035800", "CVE_ENT": "29", "CVE_MUN": "057", "CVE_LOC": "0009", "CVE_AGEB": "0035", "NOMGEO": "El Crucero (El Carril)" }, "geometry": { "type": "Point", "coordinates": [ -98.314944059999945, 19.257715879999122 ] } },
{ "type": "Feature", "properties": { "CVEGEO": "2905700100035800", "CVE_ENT": "29", "CVE_MUN": "057", "CVE_LOC": "0010", "CVE_AGEB": "0035", "NOMGEO": "Pedro Piscil Teniza" }, "geometry": { "type": "Point", "coordinates": [ -98.308836229999898, 19.249861919999148 ] } },
{ "type": "Feature", "properties": { "CVEGEO": "2905700110035800", "CVE_ENT": "29", "CVE_MUN": "057", "CVE_LOC": "0011", "CVE_AGEB": "0035", "NOMGEO": "La Besana del Puente (Acuilco)" }, "geometry": { "type": "Point", "coordinates": [ -98.3050988299999, 19.243482219999095 ] } },
{ "type": "Feature", "properties": { "CVEGEO": "2905700120035800", "CVE_ENT": "29", "CVE_MUN": "057", "CVE_LOC": "0012", "CVE_AGEB": "0035", "NOMGEO": "El Espinal" }, "geometry": { "type": "Point", "coordinates": [ -98.318459709999928, 19.25249971999914 ] } },
{ "type": "Feature", "properties": { "CVEGEO": "2903200140182800", "CVE_ENT": "29", "CVE_MUN": "032", "CVE_LOC": "0014", "CVE_AGEB": "0182", "NOMGEO": "Guetulio Suárez López" }, "geometry": { "type": "Point", "coordinates": [ -98.279645349999925, 19.253434969999155 ] } },
{ "type": "Feature", "properties": { "CVEGEO": "2903200160178800", "CVE_ENT": "29", "CVE_MUN": "032", "CVE_LOC": "0016", "CVE_AGEB": "0178", "NOMGEO": "LICONSA (La Regadera)" }, "geometry": { "type": "Point", "coordinates": [ -98.294893889999955, 19.225178799999096 ] } },
{ "type": "Feature", "properties": { "CVEGEO": "2903200190182800", "CVE_ENT": "29", "CVE_MUN": "032", "CVE_LOC": "0019", "CVE_AGEB": "0182", "NOMGEO": "Atenco" }, "geometry": { "type": "Point", "coordinates": [ -98.300246259999895, 19.243895139999136 ] } },
{ "type": "Feature", "properties": { "CVEGEO": "2903200200178800", "CVE_ENT": "29", "CVE_MUN": "032", "CVE_LOC": "0020", "CVE_AGEB": "0178", "NOMGEO": "Paredón" }, "geometry": { "type": "Point", "coordinates": [ -98.281544739999916, 19.231879119999086 ] } },
{ "type": "Feature", "properties": { "CVEGEO": "2903200210182800", "CVE_ENT": "29", "CVE_MUN": "032", "CVE_LOC": "0021", "CVE_AGEB": "0182", "NOMGEO": "El Potrero" }, "geometry": { "type": "Point", "coordinates": [ -98.298049739999911, 19.24232921999916 ] } },
{ "type": "Feature", "properties": { "CVEGEO": "2903200230182800", "CVE_ENT": "29", "CVE_MUN": "032", "CVE_LOC": "0023", "CVE_AGEB": "0182", "NOMGEO": "Los Pinos" }, "geometry": { "type": "Point", "coordinates": [ -98.299687449999922, 19.247708629999121 ] } },
{ "type": "Feature", "properties": { "CVEGEO": "2903200240182800", "CVE_ENT": "29", "CVE_MUN": "032", "CVE_LOC": "0024", "CVE_AGEB": "0182", "NOMGEO": "La Cachorra" }, "geometry": { "type": "Point", "coordinates": [ -98.281172199999915, 19.25258033999916 ] } },
{ "type": "Feature", "properties": { "CVEGEO": "2903200250182800", "CVE_ENT": "29", "CVE_MUN": "032", "CVE_LOC": "0025", "CVE_AGEB": "0182", "NOMGEO": "Zavaleta" }, "geometry": { "type": "Point", "coordinates": [ -98.275099045999951, 19.27524044599912 ] } },
{ "type": "Feature", "properties": { "CVEGEO": "2903200260182800", "CVE_ENT": "29", "CVE_MUN": "032", "CVE_LOC": "0026", "CVE_AGEB": "0182", "NOMGEO": "Piscila" }, "geometry": { "type": "Point", "coordinates": [ -98.280475309999957, 19.2739176599991 ] } },
{ "type": "Feature", "properties": { "CVEGEO": "2903200270182800", "CVE_ENT": "29", "CVE_MUN": "032", "CVE_LOC": "0027", "CVE_AGEB": "0182", "NOMGEO": "Rinconada" }, "geometry": { "type": "Point", "coordinates": [ -98.272283349999924, 19.278064109999175 ] } },
{ "type": "Feature", "properties": { "CVEGEO": "2903200280178800", "CVE_ENT": "29", "CVE_MUN": "032", "CVE_LOC": "0028", "CVE_AGEB": "0178", "NOMGEO": "Santa Águeda" }, "geometry": { "type": "Point", "coordinates": [ -98.290660549999942, 19.192734509999134 ] } },
{ "type": "Feature", "properties": { "CVEGEO": "2903200290182800", "CVE_ENT": "29", "CVE_MUN": "032", "CVE_LOC": "0029", "CVE_AGEB": "0182", "NOMGEO": "El Columpio" }, "geometry": { "type": "Point", "coordinates": [ -98.285881291999928, 19.263382584999107 ] } },
{ "type": "Feature", "properties": { "CVEGEO": "2903200310182800", "CVE_ENT": "29", "CVE_MUN": "032", "CVE_LOC": "0031", "CVE_AGEB": "0182", "NOMGEO": "Las Mesas" }, "geometry": { "type": "Point", "coordinates": [ -98.270704814999959, 19.274337861999115 ] } },
{ "type": "Feature", "properties": { "CVEGEO": "2903200320182800", "CVE_ENT": "29", "CVE_MUN": "032", "CVE_LOC": "0032", "CVE_AGEB": "0182", "NOMGEO": "Los Pinos" }, "geometry": { "type": "Point", "coordinates": [ -98.289470799999933, 19.259841769999117 ] } },
{ "type": "Feature", "properties": { "CVEGEO": "2903200300178800", "CVE_ENT": "29", "CVE_MUN": "032", "CVE_LOC": "0030", "CVE_AGEB": "0178", "NOMGEO": "El Fresno" }, "geometry": { "type": "Point", "coordinates": [ -98.299680749999894, 19.228398769999131 ] } },
{ "type": "Feature", "properties": { "CVEGEO": "2900400020046800", "CVE_ENT": "29", "CVE_MUN": "004", "CVE_LOC": "0002", "CVE_AGEB": "0046", "NOMGEO": "San Francisco Axopilco" }, "geometry": { "type": "Point", "coordinates": [ -97.774865799999944, 19.454826169999116 ] } },
{ "type": "Feature", "properties": { "CVEGEO": "2900401110050800", "CVE_ENT": "29", "CVE_MUN": "004", "CVE_LOC": "0111", "CVE_AGEB": "0050", "NOMGEO": "Santo Domingo" }, "geometry": { "type": "Point", "coordinates": [ -97.877260519999908, 19.455373369999155 ] } },
{ "type": "Feature", "properties": { "CVEGEO": "2900400770027800", "CVE_ENT": "29", "CVE_MUN": "004", "CVE_LOC": "0077", "CVE_AGEB": "0027", "NOMGEO": "Barrio de Guadalupe" }, "geometry": { "type": "Point", "coordinates": [ -97.808351489999907, 19.430025049999127 ] } },
{ "type": "Feature", "properties": { "CVEGEO": "2900400920027800", "CVE_ENT": "29", "CVE_MUN": "004", "CVE_LOC": "0092", "CVE_AGEB": "0027", "NOMGEO": "Mariano Guarneros Arroyo" }, "geometry": { "type": "Point", "coordinates": [ -97.800958459999933, 19.435171569999088 ] } },
{ "type": "Feature", "properties": { "CVEGEO": "2900401070050800", "CVE_ENT": "29", "CVE_MUN": "004", "CVE_LOC": "0107", "CVE_AGEB": "0050", "NOMGEO": "Techachalco" }, "geometry": { "type": "Point", "coordinates": [ -97.847112579999944, 19.438166309999115 ] } },
{ "type": "Feature", "properties": { "CVEGEO": "2900400180046800", "CVE_ENT": "29", "CVE_MUN": "004", "CVE_LOC": "0018", "CVE_AGEB": "0046", "NOMGEO": "San José Xalasco" }, "geometry": { "type": "Point", "coordinates": [ -97.817245709999909, 19.388092859999123 ] } },
{ "type": "Feature", "properties": { "CVEGEO": "2900400460050800", "CVE_ENT": "29", "CVE_MUN": "004", "CVE_LOC": "0046", "CVE_AGEB": "0050", "NOMGEO": "Mazehualpa" }, "geometry": { "type": "Point", "coordinates": [ -97.828241249999948, 19.391139079999178 ] } },
{ "type": "Feature", "properties": { "CVEGEO": "2900400650050800", "CVE_ENT": "29", "CVE_MUN": "004", "CVE_LOC": "0065", "CVE_AGEB": "0050", "NOMGEO": "Santa Cruz [Rancho]" }, "geometry": { "type": "Point", "coordinates": [ -97.820848019999929, 19.407720739999132 ] } },
{ "type": "Feature", "properties": { "CVEGEO": "2900400830046800", "CVE_ENT": "29", "CVE_MUN": "004", "CVE_LOC": "0083", "CVE_AGEB": "0046", "NOMGEO": "Los Ocalitos" }, "geometry": { "type": "Point", "coordinates": [ -97.738528569999943, 19.381699249999141 ] } },
{ "type": "Feature", "properties": { "CVEGEO": "2900401020046800", "CVE_ENT": "29", "CVE_MUN": "004", "CVE_LOC": "0102", "CVE_AGEB": "0046", "NOMGEO": "El Piñonal (Guadalupe el Piñonal)" }, "geometry": { "type": "Point", "coordinates": [ -97.70876, 19.397410449999125 ] } },
{ "type": "Feature", "properties": { "CVEGEO": "2900401040050800", "CVE_ENT": "29", "CVE_MUN": "004", "CVE_LOC": "0104", "CVE_AGEB": "0050", "NOMGEO": "Rancho Guadalupe" }, "geometry": { "type": "Point", "coordinates": [ -97.821441799999931, 19.406210579999115 ] } },
{ "type": "Feature", "properties": { "CVEGEO": "2900401140050800", "CVE_ENT": "29", "CVE_MUN": "004", "CVE_LOC": "0114", "CVE_AGEB": "0050", "NOMGEO": "Marina Paredes" }, "geometry": { "type": "Point", "coordinates": [ -97.862285019999916, 19.388909889999098 ] } },
{ "type": "Feature", "properties": { "CVEGEO": "2900400310046800", "CVE_ENT": "29", "CVE_MUN": "004", "CVE_LOC": "0031", "CVE_AGEB": "0046", "NOMGEO": "Rancho Guadalupe" }, "geometry": { "type": "Point", "coordinates": [ -97.796842229999953, 19.37411496999913 ] } },
{ "type": "Feature", "properties": { "CVEGEO": "2900400390046800", "CVE_ENT": "29", "CVE_MUN": "004", "CVE_LOC": "0039", "CVE_AGEB": "0046", "NOMGEO": "Santa Martha [Rancho]" }, "geometry": { "type": "Point", "coordinates": [ -97.785265089999911, 19.372745739999097 ] } },
{ "type": "Feature", "properties": { "CVEGEO": "2900400640046800", "CVE_ENT": "29", "CVE_MUN": "004", "CVE_LOC": "0064", "CVE_AGEB": "0046", "NOMGEO": "San Antonio Zoapila" }, "geometry": { "type": "Point", "coordinates": [ -97.772937859999942, 19.369524649999182 ] } },
{ "type": "Feature", "properties": { "CVEGEO": "2900400790046800", "CVE_ENT": "29", "CVE_MUN": "004", "CVE_LOC": "0079", "CVE_AGEB": "0046", "NOMGEO": "Santa Margarita [Rancho]" }, "geometry": { "type": "Point", "coordinates": [ -97.784451679999918, 19.373455709999117 ] } },
{ "type": "Feature", "properties": { "CVEGEO": "2900400150050800", "CVE_ENT": "29", "CVE_MUN": "004", "CVE_LOC": "0015", "CVE_AGEB": "0050", "NOMGEO": "La Rincona" }, "geometry": { "type": "Point", "coordinates": [ -97.839071259999955, 19.395423679999116 ] } },
{ "type": "Feature", "properties": { "CVEGEO": "2900400320046800", "CVE_ENT": "29", "CVE_MUN": "004", "CVE_LOC": "0032", "CVE_AGEB": "0046", "NOMGEO": "El Mirador" }, "geometry": { "type": "Point", "coordinates": [ -97.796476779999935, 19.381804569999137 ] } },
{ "type": "Feature", "properties": { "CVEGEO": "2900400760050800", "CVE_ENT": "29", "CVE_MUN": "004", "CVE_LOC": "0076", "CVE_AGEB": "0050", "NOMGEO": "El Salto" }, "geometry": { "type": "Point", "coordinates": [ -97.835627479999928, 19.392887539999155 ] } },
{ "type": "Feature", "properties": { "CVEGEO": "2900400780046800", "CVE_ENT": "29", "CVE_MUN": "004", "CVE_LOC": "0078", "CVE_AGEB": "0046", "NOMGEO": "Oscar Flores" }, "geometry": { "type": "Point", "coordinates": [ -97.7928289099999, 19.378667079999154 ] } },
{ "type": "Feature", "properties": { "CVEGEO": "2900400810046800", "CVE_ENT": "29", "CVE_MUN": "004", "CVE_LOC": "0081", "CVE_AGEB": "0046", "NOMGEO": "Amparito" }, "geometry": { "type": "Point", "coordinates": [ -97.792690429999894, 19.377518849999156 ] } },
{ "type": "Feature", "properties": { "CVEGEO": "2900400960027800", "CVE_ENT": "29", "CVE_MUN": "004", "CVE_LOC": "0096", "CVE_AGEB": "0027", "NOMGEO": "Aurelio Aguilar" }, "geometry": { "type": "Point", "coordinates": [ -97.839071079999911, 19.447769979999141 ] } },
{ "type": "Feature", "properties": { "CVEGEO": "2900401000027800", "CVE_ENT": "29", "CVE_MUN": "004", "CVE_LOC": "0100", "CVE_AGEB": "0027", "NOMGEO": "José Fernández" }, "geometry": { "type": "Point", "coordinates": [ -97.840313769999952, 19.447798229999126 ] } },
{ "type": "Feature", "properties": { "CVEGEO": "2900400420027800", "CVE_ENT": "29", "CVE_MUN": "004", "CVE_LOC": "0042", "CVE_AGEB": "0027", "NOMGEO": "Carreta" }, "geometry": { "type": "Point", "coordinates": [ -97.812874049999905, 19.444412629999103 ] } },
{ "type": "Feature", "properties": { "CVEGEO": "2900400430027800", "CVE_ENT": "29", "CVE_MUN": "004", "CVE_LOC": "0043", "CVE_AGEB": "0027", "NOMGEO": "Xarero Xaltitla" }, "geometry": { "type": "Point", "coordinates": [ -97.786543369999919, 19.451537679999149 ] } },
{ "type": "Feature", "properties": { "CVEGEO": "2900400870027800", "CVE_ENT": "29", "CVE_MUN": "004", "CVE_LOC": "0087", "CVE_AGEB": "0027", "NOMGEO": "Rancho Corazón de Jesús" }, "geometry": { "type": "Point", "coordinates": [ -97.805795819999915, 19.436326149999164 ] } },
{ "type": "Feature", "properties": { "CVEGEO": "2900400500046800", "CVE_ENT": "29", "CVE_MUN": "004", "CVE_LOC": "0050", "CVE_AGEB": "0046", "NOMGEO": "San Miguel Franco [Ranchería]" }, "geometry": { "type": "Point", "coordinates": [ -97.806552659999937, 19.361460289999116 ] } },
{ "type": "Feature", "properties": { "CVEGEO": "2900400580046800", "CVE_ENT": "29", "CVE_MUN": "004", "CVE_LOC": "0058", "CVE_AGEB": "0046", "NOMGEO": "La Higuera" }, "geometry": { "type": "Point", "coordinates": [ -97.791063739999927, 19.376501019999115 ] } },
{ "type": "Feature", "properties": { "CVEGEO": "2900401060046800", "CVE_ENT": "29", "CVE_MUN": "004", "CVE_LOC": "0106", "CVE_AGEB": "0046", "NOMGEO": "San Jerónimo Zacualpan" }, "geometry": { "type": "Point", "coordinates": [ -97.798862, 19.375365019999162 ] } },
{ "type": "Feature", "properties": { "CVEGEO": "2900401050046800", "CVE_ENT": "29", "CVE_MUN": "004", "CVE_LOC": "0105", "CVE_AGEB": "0046", "NOMGEO": "San Isidro" }, "geometry": { "type": "Point", "coordinates": [ -97.752710309999898, 19.420387399999139 ] } },
{ "type": "Feature", "properties": { "CVEGEO": "2900400380046800", "CVE_ENT": "29", "CVE_MUN": "004", "CVE_LOC": "0038", "CVE_AGEB": "0046", "NOMGEO": "Pastorias" }, "geometry": { "type": "Point", "coordinates": [ -97.783520569999908, 19.417631779999098 ] } },
{ "type": "Feature", "properties": { "CVEGEO": "2900401030046800", "CVE_ENT": "29", "CVE_MUN": "004", "CVE_LOC": "0103", "CVE_AGEB": "0046", "NOMGEO": "Rancho de Jesús" }, "geometry": { "type": "Point", "coordinates": [ -97.788865489999964, 19.361748019999116 ] } },
{ "type": "Feature", "properties": { "CVEGEO": "2900401120046800", "CVE_ENT": "29", "CVE_MUN": "004", "CVE_LOC": "0112", "CVE_AGEB": "0046", "NOMGEO": "El Palmar" }, "geometry": { "type": "Point", "coordinates": [ -97.798986909999925, 19.416674149999125 ] } },
{ "type": "Feature", "properties": { "CVEGEO": "2900400110050800", "CVE_ENT": "29", "CVE_MUN": "004", "CVE_LOC": "0011", "CVE_AGEB": "0050", "NOMGEO": "Rancho Ocotla" }, "geometry": { "type": "Point", "coordinates": [ -97.817796519999931, 19.406011309999105 ] } },
{ "type": "Feature", "properties": { "CVEGEO": "2900400300050800", "CVE_ENT": "29", "CVE_MUN": "004", "CVE_LOC": "0030", "CVE_AGEB": "0050", "NOMGEO": "Rancho Blanco" }, "geometry": { "type": "Point", "coordinates": [ -97.849098379999973, 19.402146619999151 ] } },
{ "type": "Feature", "properties": { "CVEGEO": "2900400510046800", "CVE_ENT": "29", "CVE_MUN": "004", "CVE_LOC": "0051", "CVE_AGEB": "0046", "NOMGEO": "Miahuapan el Alto" }, "geometry": { "type": "Point", "coordinates": [ -97.741663399999908, 19.400755889999139 ] } },
{ "type": "Feature", "properties": { "CVEGEO": "2900400660050800", "CVE_ENT": "29", "CVE_MUN": "004", "CVE_LOC": "0066", "CVE_AGEB": "0050", "NOMGEO": "Rancho Santa Viviana" }, "geometry": { "type": "Point", "coordinates": [ -97.816866979999944, 19.408785429999106 ] } },
{ "type": "Feature", "properties": { "CVEGEO": "2900401090050800", "CVE_ENT": "29", "CVE_MUN": "004", "CVE_LOC": "0109", "CVE_AGEB": "0050", "NOMGEO": "Huerta Lizet" }, "geometry": { "type": "Point", "coordinates": [ -97.825207539999937, 19.411181829999105 ] } },
{ "type": "Feature", "properties": { "CVEGEO": "2900401100050800", "CVE_ENT": "29", "CVE_MUN": "004", "CVE_LOC": "0110", "CVE_AGEB": "0050", "NOMGEO": "San Miguel" }, "geometry": { "type": "Point", "coordinates": [ -97.848380629999909, 19.415846739999143 ] } },
{ "type": "Feature", "properties": { "CVEGEO": "2900400850027800", "CVE_ENT": "29", "CVE_MUN": "004", "CVE_LOC": "0085", "CVE_AGEB": "0027", "NOMGEO": "San José el Infinito" }, "geometry": { "type": "Point", "coordinates": [ -97.812735599999925, 19.443857089999145 ] } },
{ "type": "Feature", "properties": { "CVEGEO": "2902900170030800", "CVE_ENT": "29", "CVE_MUN": "029", "CVE_LOC": "0017", "CVE_AGEB": "0030", "NOMGEO": "Armando Sánchez" }, "geometry": { "type": "Point", "coordinates": [ -98.2480215799999, 19.263732379999073 ] } },
{ "type": "Feature", "properties": { "CVEGEO": "2902900190030800", "CVE_ENT": "29", "CVE_MUN": "029", "CVE_LOC": "0019", "CVE_AGEB": "0030", "NOMGEO": "Hilario Cuatepocho" }, "geometry": { "type": "Point", "coordinates": [ -98.243854768999896, 19.263732399999103 ] } },
{ "type": "Feature", "properties": { "CVEGEO": "2902900230030800", "CVE_ENT": "29", "CVE_MUN": "029", "CVE_LOC": "0023", "CVE_AGEB": "0030", "NOMGEO": "Colonia Guadalupe" }, "geometry": { "type": "Point", "coordinates": [ -98.236760489999909, 19.261976379999144 ] } },
{ "type": "Feature", "properties": { "CVEGEO": "2902900180030800", "CVE_ENT": "29", "CVE_MUN": "029", "CVE_LOC": "0018", "CVE_AGEB": "0030", "NOMGEO": "Gerardo Franco" }, "geometry": { "type": "Point", "coordinates": [ -98.239463689999965, 19.261820119999093 ] } },
{ "type": "Feature", "properties": { "CVEGEO": "2902900210030800", "CVE_ENT": "29", "CVE_MUN": "029", "CVE_LOC": "0021", "CVE_AGEB": "0030", "NOMGEO": "Tepetitla" }, "geometry": { "type": "Point", "coordinates": [ -98.236264939999913, 19.238823859999076 ] } },
{ "type": "Feature", "properties": { "CVEGEO": "2902900240030800", "CVE_ENT": "29", "CVE_MUN": "029", "CVE_LOC": "0024", "CVE_AGEB": "0030", "NOMGEO": "El Potrero" }, "geometry": { "type": "Point", "coordinates": [ -98.243073229999908, 19.258708889999131 ] } },
{ "type": "Feature", "properties": { "CVEGEO": "2903900290022800", "CVE_ENT": "29", "CVE_MUN": "039", "CVE_LOC": "0029", "CVE_AGEB": "0022", "NOMGEO": "Los Pinos [Rancho]" }, "geometry": { "type": "Point", "coordinates": [ -97.982969599999976, 19.427216419999116 ] } },
{ "type": "Feature", "properties": { "CVEGEO": "2903900220022800", "CVE_ENT": "29", "CVE_MUN": "039", "CVE_LOC": "0022", "CVE_AGEB": "0022", "NOMGEO": "San Pedro [Rancho]" }, "geometry": { "type": "Point", "coordinates": [ -97.980818029999952, 19.41706068999915 ] } },
{ "type": "Feature", "properties": { "CVEGEO": "2903900230022800", "CVE_ENT": "29", "CVE_MUN": "039", "CVE_LOC": "0023", "CVE_AGEB": "0022", "NOMGEO": "San Isidro [Rancho]" }, "geometry": { "type": "Point", "coordinates": [ -97.979736549999956, 19.424062149999109 ] } },
{ "type": "Feature", "properties": { "CVEGEO": "2903900240022800", "CVE_ENT": "29", "CVE_MUN": "039", "CVE_LOC": "0024", "CVE_AGEB": "0022", "NOMGEO": "Las Brisas" }, "geometry": { "type": "Point", "coordinates": [ -97.976255819999906, 19.421300739999115 ] } },
{ "type": "Feature", "properties": { "CVEGEO": "2903900250022800", "CVE_ENT": "29", "CVE_MUN": "039", "CVE_LOC": "0025", "CVE_AGEB": "0022", "NOMGEO": "Demetrio Hernández López" }, "geometry": { "type": "Point", "coordinates": [ -97.994476276999947, 19.421411876999105 ] } },
{ "type": "Feature", "properties": { "CVEGEO": "2903900260022800", "CVE_ENT": "29", "CVE_MUN": "039", "CVE_LOC": "0026", "CVE_AGEB": "0022", "NOMGEO": "Florencia Sánchez Nava" }, "geometry": { "type": "Point", "coordinates": [ -98.025880445999931, 19.41603964599916 ] } },
{ "type": "Feature", "properties": { "CVEGEO": "2903900270022800", "CVE_ENT": "29", "CVE_MUN": "039", "CVE_LOC": "0027", "CVE_AGEB": "0022", "NOMGEO": "Celino Sánchez Conde" }, "geometry": { "type": "Point", "coordinates": [ -98.020525614999897, 19.428524030999132 ] } },
{ "type": "Feature", "properties": { "CVEGEO": "2903900310022800", "CVE_ENT": "29", "CVE_MUN": "039", "CVE_LOC": "0031", "CVE_AGEB": "0022", "NOMGEO": "Rancho R77" }, "geometry": { "type": "Point", "coordinates": [ -97.982557119999939, 19.425430279999137 ] } },
{ "type": "Feature", "properties": { "CVEGEO": "2903900100022800", "CVE_ENT": "29", "CVE_MUN": "039", "CVE_LOC": "0010", "CVE_AGEB": "0022", "NOMGEO": "La Concepción" }, "geometry": { "type": "Point", "coordinates": [ -98.020713661999963, 19.415522091999147 ] } },
{ "type": "Feature", "properties": { "CVEGEO": "2903900280022800", "CVE_ENT": "29", "CVE_MUN": "039", "CVE_LOC": "0028", "CVE_AGEB": "0022", "NOMGEO": "Rutilio Montiel" }, "geometry": { "type": "Point", "coordinates": [ -97.999995461999916, 19.425549584999128 ] } },
{ "type": "Feature", "properties": { "CVEGEO": "2903900300022800", "CVE_ENT": "29", "CVE_MUN": "039", "CVE_LOC": "0030", "CVE_AGEB": "0022", "NOMGEO": "Rancho José Pilar" }, "geometry": { "type": "Point", "coordinates": [ -97.987534019999913, 19.417771419999138 ] } },
{ "type": "Feature", "properties": { "CVEGEO": "2903900320022800", "CVE_ENT": "29", "CVE_MUN": "039", "CVE_LOC": "0032", "CVE_AGEB": "0022", "NOMGEO": "San Juan [Rancho]" }, "geometry": { "type": "Point", "coordinates": [ -97.987643199999965, 19.418074879999153 ] } },
{ "type": "Feature", "properties": { "CVEGEO": "2903900110022800", "CVE_ENT": "29", "CVE_MUN": "039", "CVE_LOC": "0011", "CVE_AGEB": "0022", "NOMGEO": "La Colmena" }, "geometry": { "type": "Point", "coordinates": [ -97.988545276999929, 19.421685368999107 ] } },
{ "type": "Feature", "properties": { "CVEGEO": "2903900120022800", "CVE_ENT": "29", "CVE_MUN": "039", "CVE_LOC": "0012", "CVE_AGEB": "0022", "NOMGEO": "Los Corrales" }, "geometry": { "type": "Point", "coordinates": [ -97.999908139999903, 19.431271059999087 ] } },
{ "type": "Feature", "properties": { "CVEGEO": "2903900140022800", "CVE_ENT": "29", "CVE_MUN": "039", "CVE_LOC": "0014", "CVE_AGEB": "0022", "NOMGEO": "El Jagüey Prieto" }, "geometry": { "type": "Point", "coordinates": [ -98.034548739999948, 19.432551779999123 ] } },
{ "type": "Feature", "properties": { "CVEGEO": "2903900150022800", "CVE_ENT": "29", "CVE_MUN": "039", "CVE_LOC": "0015", "CVE_AGEB": "0022", "NOMGEO": "San José Ocotitla" }, "geometry": { "type": "Point", "coordinates": [ -98.035644953999949, 19.435439461999117 ] } },
{ "type": "Feature", "properties": { "CVEGEO": "2903900180022800", "CVE_ENT": "29", "CVE_MUN": "039", "CVE_LOC": "0018", "CVE_AGEB": "0022", "NOMGEO": "La Casita" }, "geometry": { "type": "Point", "coordinates": [ -98.009256661999942, 19.433683937999138 ] } },
{ "type": "Feature", "properties": { "CVEGEO": "2903900190022800", "CVE_ENT": "29", "CVE_MUN": "039", "CVE_LOC": "0019", "CVE_AGEB": "0022", "NOMGEO": "Nicolás Bravo [Granja Avícola]" }, "geometry": { "type": "Point", "coordinates": [ -97.983475739999932, 19.423589599999147 ] } },
{ "type": "Feature", "properties": { "CVEGEO": "2903900210022800", "CVE_ENT": "29", "CVE_MUN": "039", "CVE_LOC": "0021", "CVE_AGEB": "0022", "NOMGEO": "Quimicho" }, "geometry": { "type": "Point", "coordinates": [ -97.992496107999912, 19.410615799999146 ] } },
{ "type": "Feature", "properties": { "CVEGEO": "2901501330035800", "CVE_ENT": "29", "CVE_MUN": "015", "CVE_LOC": "0133", "CVE_AGEB": "0035", "NOMGEO": "El Moral" }, "geometry": { "type": "Point", "coordinates": [ -98.371259937999938, 19.329636045999152 ] } },
{ "type": "Feature", "properties": { "CVEGEO": "2901500230035800", "CVE_ENT": "29", "CVE_MUN": "015", "CVE_LOC": "0023", "CVE_AGEB": "0035", "NOMGEO": "San Joaquín" }, "geometry": { "type": "Point", "coordinates": [ -98.401974661999944, 19.372878430999158 ] } },
{ "type": "Feature", "properties": { "CVEGEO": "2901500270035800", "CVE_ENT": "29", "CVE_MUN": "015", "CVE_LOC": "0027", "CVE_AGEB": "0035", "NOMGEO": "San Nicolás" }, "geometry": { "type": "Point", "coordinates": [ -98.419580214999897, 19.346951507999155 ] } },
{ "type": "Feature", "properties": { "CVEGEO": "2901500780035800", "CVE_ENT": "29", "CVE_MUN": "015", "CVE_LOC": "0078", "CVE_AGEB": "0035", "NOMGEO": "La Pajuela" }, "geometry": { "type": "Point", "coordinates": [ -98.437829676999925, 19.38192961499913 ] } },
{ "type": "Feature", "properties": { "CVEGEO": "2901501360035800", "CVE_ENT": "29", "CVE_MUN": "015", "CVE_LOC": "0136", "CVE_AGEB": "0035", "NOMGEO": "Eulalio Segundo (San Tomás)" }, "geometry": { "type": "Point", "coordinates": [ -98.426870430999898, 19.347562568999141 ] } },
{ "type": "Feature", "properties": { "CVEGEO": "2901500820035800", "CVE_ENT": "29", "CVE_MUN": "015", "CVE_LOC": "0082", "CVE_AGEB": "0035", "NOMGEO": "Gildardo Ramírez González" }, "geometry": { "type": "Point", "coordinates": [ -98.438548153999974, 19.34563866199916 ] } },
{ "type": "Feature", "properties": { "CVEGEO": "2901501190035800", "CVE_ENT": "29", "CVE_MUN": "015", "CVE_LOC": "0119", "CVE_AGEB": "0035", "NOMGEO": "San Cristóbal" }, "geometry": { "type": "Point", "coordinates": [ -98.451477168999958, 19.345772522999116 ] } },
{ "type": "Feature", "properties": { "CVEGEO": "2901501300035800", "CVE_ENT": "29", "CVE_MUN": "015", "CVE_LOC": "0130", "CVE_AGEB": "0035", "NOMGEO": "Rancho de la Virgen" }, "geometry": { "type": "Point", "coordinates": [ -98.385934199999909, 19.330118553999117 ] } },
{ "type": "Feature", "properties": { "CVEGEO": "2901501640035800", "CVE_ENT": "29", "CVE_MUN": "015", "CVE_LOC": "0164", "CVE_AGEB": "0035", "NOMGEO": "Rancho Montecristo" }, "geometry": { "type": "Point", "coordinates": [ -98.409926919999961, 19.326391692999145 ] } },
{ "type": "Feature", "properties": { "CVEGEO": "2901500130035800", "CVE_ENT": "29", "CVE_MUN": "015", "CVE_LOC": "0013", "CVE_AGEB": "0035", "NOMGEO": "El Ocotal" }, "geometry": { "type": "Point", "coordinates": [ -98.413569689999946, 19.343364549999162 ] } },
{ "type": "Feature", "properties": { "CVEGEO": "2901500850035800", "CVE_ENT": "29", "CVE_MUN": "015", "CVE_LOC": "0085", "CVE_AGEB": "0035", "NOMGEO": "Las Rositas" }, "geometry": { "type": "Point", "coordinates": [ -98.43303026199996, 19.34893356899914 ] } },
{ "type": "Feature", "properties": { "CVEGEO": "2901500910035800", "CVE_ENT": "29", "CVE_MUN": "015", "CVE_LOC": "0091", "CVE_AGEB": "0035", "NOMGEO": "Rancho Mira el Sol" }, "geometry": { "type": "Point", "coordinates": [ -98.437251337999911, 19.332191891999088 ] } },
{ "type": "Feature", "properties": { "CVEGEO": "2901500930035800", "CVE_ENT": "29", "CVE_MUN": "015", "CVE_LOC": "0093", "CVE_AGEB": "0035", "NOMGEO": "Anselmo Cavita" }, "geometry": { "type": "Point", "coordinates": [ -98.391195859999939, 19.336384779999158 ] } },
{ "type": "Feature", "properties": { "CVEGEO": "2901500940035800", "CVE_ENT": "29", "CVE_MUN": "015", "CVE_LOC": "0094", "CVE_AGEB": "0035", "NOMGEO": "Las Moras (Las Moradillas)" }, "geometry": { "type": "Point", "coordinates": [ -98.395396491999946, 19.322138245999149 ] } },
{ "type": "Feature", "properties": { "CVEGEO": "2901500950035800", "CVE_ENT": "29", "CVE_MUN": "015", "CVE_LOC": "0095", "CVE_AGEB": "0035", "NOMGEO": "La Joya" }, "geometry": { "type": "Point", "coordinates": [ -98.393039276999914, 19.324628091999156 ] } },
{ "type": "Feature", "properties": { "CVEGEO": "2901500960035800", "CVE_ENT": "29", "CVE_MUN": "015", "CVE_LOC": "0096", "CVE_AGEB": "0035", "NOMGEO": "Fracción la Virgen" }, "geometry": { "type": "Point", "coordinates": [ -98.445389659999947, 19.348534109999164 ] } },
{ "type": "Feature", "properties": { "CVEGEO": "2901500980035800", "CVE_ENT": "29", "CVE_MUN": "015", "CVE_LOC": "0098", "CVE_AGEB": "0035", "NOMGEO": "Julio Castañeda" }, "geometry": { "type": "Point", "coordinates": [ -98.414194830999932, 19.339847291999146 ] } },
{ "type": "Feature", "properties": { "CVEGEO": "2901501200035800", "CVE_ENT": "29", "CVE_MUN": "015", "CVE_LOC": "0120", "CVE_AGEB": "0035", "NOMGEO": "San Lucas (El Campirano)" }, "geometry": { "type": "Point", "coordinates": [ -98.427051245999934, 19.378304737999148 ] } },
{ "type": "Feature", "properties": { "CVEGEO": "2901501220406800", "CVE_ENT": "29", "CVE_MUN": "015", "CVE_LOC": "0122", "CVE_AGEB": "0406", "NOMGEO": "Tezoquipan" }, "geometry": { "type": "Point", "coordinates": [ -98.365895137999942, 19.306709091999135 ] } },
{ "type": "Feature", "properties": { "CVEGEO": "2901501230035800", "CVE_ENT": "29", "CVE_MUN": "015", "CVE_LOC": "0123", "CVE_AGEB": "0035", "NOMGEO": "El Arco" }, "geometry": { "type": "Point", "coordinates": [ -98.383397549999941, 19.331499349999127 ] } },
{ "type": "Feature", "properties": { "CVEGEO": "2901501560393800", "CVE_ENT": "29", "CVE_MUN": "015", "CVE_LOC": "0156", "CVE_AGEB": "0393", "NOMGEO": "San Francisco [Colonia]" }, "geometry": { "type": "Point", "coordinates": [ -98.359396107999899, 19.330037630999112 ] } },
{ "type": "Feature", "properties": { "CVEGEO": "2901501570035800", "CVE_ENT": "29", "CVE_MUN": "015", "CVE_LOC": "0157", "CVE_AGEB": "0035", "NOMGEO": "El Retorno [Rancho]" }, "geometry": { "type": "Point", "coordinates": [ -98.4224754299999, 19.370400349999148 ] } },
{ "type": "Feature", "properties": { "CVEGEO": "2901501580035800", "CVE_ENT": "29", "CVE_MUN": "015", "CVE_LOC": "0158", "CVE_AGEB": "0035", "NOMGEO": "Cortijo de Robles" }, "geometry": { "type": "Point", "coordinates": [ -98.445592984999948, 19.363194830999142 ] } },
{ "type": "Feature", "properties": { "CVEGEO": "2901501590393800", "CVE_ENT": "29", "CVE_MUN": "015", "CVE_LOC": "0159", "CVE_AGEB": "0393", "NOMGEO": "Franck Zambrano" }, "geometry": { "type": "Point", "coordinates": [ -98.330223119999928, 19.314820059999146 ] } },
{ "type": "Feature", "properties": { "CVEGEO": "2901501600406800", "CVE_ENT": "29", "CVE_MUN": "015", "CVE_LOC": "0160", "CVE_AGEB": "0406", "NOMGEO": "La Laguna" }, "geometry": { "type": "Point", "coordinates": [ -98.340874322999952, 19.295491953999161 ] } },
{ "type": "Feature", "properties": { "CVEGEO": "2901501610393800", "CVE_ENT": "29", "CVE_MUN": "015", "CVE_LOC": "0161", "CVE_AGEB": "0393", "NOMGEO": "Patricia Fuentes" }, "geometry": { "type": "Point", "coordinates": [ -98.373575579999923, 19.320002509999117 ] } },
{ "type": "Feature", "properties": { "CVEGEO": "2901501620393800", "CVE_ENT": "29", "CVE_MUN": "015", "CVE_LOC": "0162", "CVE_AGEB": "0393", "NOMGEO": "San José" }, "geometry": { "type": "Point", "coordinates": [ -98.357140184999963, 19.316872768999136 ] } },
{ "type": "Feature", "properties": { "CVEGEO": "2901501630393800", "CVE_ENT": "29", "CVE_MUN": "015", "CVE_LOC": "0163", "CVE_AGEB": "0393", "NOMGEO": "La Venta" }, "geometry": { "type": "Point", "coordinates": [ -98.332842779999922, 19.318371949999079 ] } },
{ "type": "Feature", "properties": { "CVEGEO": "2901500060035800", "CVE_ENT": "29", "CVE_MUN": "015", "CVE_LOC": "0006", "CVE_AGEB": "0035", "NOMGEO": "El Escobillal" }, "geometry": { "type": "Point", "coordinates": [ -98.43888503099997, 19.358800830999137 ] } },
{ "type": "Feature", "properties": { "CVEGEO": "2901500090035800", "CVE_ENT": "29", "CVE_MUN": "015", "CVE_LOC": "0009", "CVE_AGEB": "0035", "NOMGEO": "Guadalupe" }, "geometry": { "type": "Point", "coordinates": [ -98.413726814999919, 19.350975814999096 ] } },
{ "type": "Feature", "properties": { "CVEGEO": "2901500100035800", "CVE_ENT": "29", "CVE_MUN": "015", "CVE_LOC": "0010", "CVE_AGEB": "0035", "NOMGEO": "La Ladera" }, "geometry": { "type": "Point", "coordinates": [ -98.403326229999905, 19.338192339999104 ] } },
{ "type": "Feature", "properties": { "CVEGEO": "2901500480035800", "CVE_ENT": "29", "CVE_MUN": "015", "CVE_LOC": "0048", "CVE_AGEB": "0035", "NOMGEO": "Bella Vista" }, "geometry": { "type": "Point", "coordinates": [ -98.427399014999978, 19.355229614999132 ] } },
{ "type": "Feature", "properties": { "CVEGEO": "2901500510035800", "CVE_ENT": "29", "CVE_MUN": "015", "CVE_LOC": "0051", "CVE_AGEB": "0035", "NOMGEO": "Alpotzonga" }, "geometry": { "type": "Point", "coordinates": [ -98.430314230999912, 19.381572984999135 ] } },
{ "type": "Feature", "properties": { "CVEGEO": "2901500530035800", "CVE_ENT": "29", "CVE_MUN": "015", "CVE_LOC": "0053", "CVE_AGEB": "0035", "NOMGEO": "Agustín López" }, "geometry": { "type": "Point", "coordinates": [ -98.441389568999924, 19.355758368999155 ] } },
{ "type": "Feature", "properties": { "CVEGEO": "2901500560035800", "CVE_ENT": "29", "CVE_MUN": "015", "CVE_LOC": "0056", "CVE_AGEB": "0035", "NOMGEO": "Rancho Aytec (Monte de los Olivos)" }, "geometry": { "type": "Point", "coordinates": [ -98.390295659999907, 19.323683689999147 ] } },
{ "type": "Feature", "properties": { "CVEGEO": "2901500600393800", "CVE_ENT": "29", "CVE_MUN": "015", "CVE_LOC": "0060", "CVE_AGEB": "0393", "NOMGEO": "Capula" }, "geometry": { "type": "Point", "coordinates": [ -98.351824861999916, 19.355472030999127 ] } },
{ "type": "Feature", "properties": { "CVEGEO": "2901500630035800", "CVE_ENT": "29", "CVE_MUN": "015", "CVE_LOC": "0063", "CVE_AGEB": "0035", "NOMGEO": "Santo Domingo" }, "geometry": { "type": "Point", "coordinates": [ -98.439524599999928, 19.384011061999161 ] } },
{ "type": "Feature", "properties": { "CVEGEO": "2901500660035800", "CVE_ENT": "29", "CVE_MUN": "015", "CVE_LOC": "0066", "CVE_AGEB": "0035", "NOMGEO": "El Centenario" }, "geometry": { "type": "Point", "coordinates": [ -98.39814672299994, 19.332038922999086 ] } },
{ "type": "Feature", "properties": { "CVEGEO": "2901500690035800", "CVE_ENT": "29", "CVE_MUN": "015", "CVE_LOC": "0069", "CVE_AGEB": "0035", "NOMGEO": "Rancho Miguel Ángel" }, "geometry": { "type": "Point", "coordinates": [ -98.45143150799997, 19.36887835399914 ] } },
{ "type": "Feature", "properties": { "CVEGEO": "2901500700035800", "CVE_ENT": "29", "CVE_MUN": "015", "CVE_LOC": "0070", "CVE_AGEB": "0035", "NOMGEO": "San Rafael [Rancho]" }, "geometry": { "type": "Point", "coordinates": [ -98.424424939999923, 19.360716079999079 ] } },
{ "type": "Feature", "properties": { "CVEGEO": "2901500730035800", "CVE_ENT": "29", "CVE_MUN": "015", "CVE_LOC": "0073", "CVE_AGEB": "0035", "NOMGEO": "Río Chiquito" }, "geometry": { "type": "Point", "coordinates": [ -98.397523645999925, 19.337821568999136 ] } },
{ "type": "Feature", "properties": { "CVEGEO": "2901500990035800", "CVE_ENT": "29", "CVE_MUN": "015", "CVE_LOC": "0099", "CVE_AGEB": "0035", "NOMGEO": "Quinta Mary" }, "geometry": { "type": "Point", "coordinates": [ -98.397714919999899, 19.33684601999915 ] } },
{ "type": "Feature", "properties": { "CVEGEO": "2901501000406800", "CVE_ENT": "29", "CVE_MUN": "015", "CVE_LOC": "0100", "CVE_AGEB": "0406", "NOMGEO": "Rancho de Cortés" }, "geometry": { "type": "Point", "coordinates": [ -98.366296337999955, 19.304467091999129 ] } },
{ "type": "Feature", "properties": { "CVEGEO": "2901501040035800", "CVE_ENT": "29", "CVE_MUN": "015", "CVE_LOC": "0104", "CVE_AGEB": "0035", "NOMGEO": "Refugio Ramírez" }, "geometry": { "type": "Point", "coordinates": [ -98.422875476999948, 19.354663984999124 ] } },
{ "type": "Feature", "properties": { "CVEGEO": "2901501050035800", "CVE_ENT": "29", "CVE_MUN": "015", "CVE_LOC": "0105", "CVE_AGEB": "0035", "NOMGEO": "San Lucas" }, "geometry": { "type": "Point", "coordinates": [ -98.440585384999949, 19.383387291999135 ] } },
{ "type": "Feature", "properties": { "CVEGEO": "2901501060035800", "CVE_ENT": "29", "CVE_MUN": "015", "CVE_LOC": "0106", "CVE_AGEB": "0035", "NOMGEO": "Juquila [Aprovechamientos Forestales]" }, "geometry": { "type": "Point", "coordinates": [ -98.447816261999904, 19.386451768999127 ] } },
{ "type": "Feature", "properties": { "CVEGEO": "2901501100035800", "CVE_ENT": "29", "CVE_MUN": "015", "CVE_LOC": "0110", "CVE_AGEB": "0035", "NOMGEO": "Esperanza [Campamento]" }, "geometry": { "type": "Point", "coordinates": [ -98.374681461999913, 19.406275707999168 ] } },
{ "type": "Feature", "properties": { "CVEGEO": "2901501110035800", "CVE_ENT": "29", "CVE_MUN": "015", "CVE_LOC": "0111", "CVE_AGEB": "0035", "NOMGEO": "La Fiscala" }, "geometry": { "type": "Point", "coordinates": [ -98.449839279999978, 19.376015199999131 ] } },
{ "type": "Feature", "properties": { "CVEGEO": "2901501120035800", "CVE_ENT": "29", "CVE_MUN": "015", "CVE_LOC": "0112", "CVE_AGEB": "0035", "NOMGEO": "José Islas (Los Caballitos)" }, "geometry": { "type": "Point", "coordinates": [ -98.408378722999927, 19.41474118499913 ] } },
{ "type": "Feature", "properties": { "CVEGEO": "2901501160035800", "CVE_ENT": "29", "CVE_MUN": "015", "CVE_LOC": "0116", "CVE_AGEB": "0035", "NOMGEO": "El Paso del Norte" }, "geometry": { "type": "Point", "coordinates": [ -98.388385799999952, 19.325937630999114 ] } },
{ "type": "Feature", "properties": { "CVEGEO": "2901501180393800", "CVE_ENT": "29", "CVE_MUN": "015", "CVE_LOC": "0118", "CVE_AGEB": "0393", "NOMGEO": "Colonia Ejido Santa Justina Ecatepec" }, "geometry": { "type": "Point", "coordinates": [ -98.350897584999942, 19.339904014999135 ] } },
{ "type": "Feature", "properties": { "CVEGEO": "2901501400035800", "CVE_ENT": "29", "CVE_MUN": "015", "CVE_LOC": "0140", "CVE_AGEB": "0035", "NOMGEO": "Lomas de Popocatla" }, "geometry": { "type": "Point", "coordinates": [ -98.393846768999893, 19.321316476999108 ] } },
{ "type": "Feature", "properties": { "CVEGEO": "2901501410035800", "CVE_ENT": "29", "CVE_MUN": "015", "CVE_LOC": "0141", "CVE_AGEB": "0035", "NOMGEO": "Luis Ramos Ramos" }, "geometry": { "type": "Point", "coordinates": [ -98.378506937999944, 19.342913753999134 ] } },
{ "type": "Feature", "properties": { "CVEGEO": "2901501420035800", "CVE_ENT": "29", "CVE_MUN": "015", "CVE_LOC": "0142", "CVE_AGEB": "0035", "NOMGEO": "Miguel Ángel Hernández" }, "geometry": { "type": "Point", "coordinates": [ -98.375648319999968, 19.339688919999151 ] } },
{ "type": "Feature", "properties": { "CVEGEO": "2901501430393800", "CVE_ENT": "29", "CVE_MUN": "015", "CVE_LOC": "0143", "CVE_AGEB": "0393", "NOMGEO": "Las Peñas" }, "geometry": { "type": "Point", "coordinates": [ -98.329866153999916, 19.35099715399911 ] } },
{ "type": "Feature", "properties": { "CVEGEO": "2901501440035800", "CVE_ENT": "29", "CVE_MUN": "015", "CVE_LOC": "0144", "CVE_AGEB": "0035", "NOMGEO": "Raúl Moctezuma Castillo" }, "geometry": { "type": "Point", "coordinates": [ -98.387748414999962, 19.337615691999122 ] } },
{ "type": "Feature", "properties": { "CVEGEO": "2901501450035800", "CVE_ENT": "29", "CVE_MUN": "015", "CVE_LOC": "0145", "CVE_AGEB": "0035", "NOMGEO": "El Refugio" }, "geometry": { "type": "Point", "coordinates": [ -98.418891969999905, 19.34596741999913 ] } },
{ "type": "Feature", "properties": { "CVEGEO": "2901501480035800", "CVE_ENT": "29", "CVE_MUN": "015", "CVE_LOC": "0148", "CVE_AGEB": "0035", "NOMGEO": "Tláloc" }, "geometry": { "type": "Point", "coordinates": [ -98.475071259999893, 19.370232369999158 ] } },
{ "type": "Feature", "properties": { "CVEGEO": "2901501500406800", "CVE_ENT": "29", "CVE_MUN": "015", "CVE_LOC": "0150", "CVE_AGEB": "0406", "NOMGEO": "Tlalpizaco" }, "geometry": { "type": "Point", "coordinates": [ -98.357550799999913, 19.291985245999111 ] } },
{ "type": "Feature", "properties": { "CVEGEO": "2901501510406800", "CVE_ENT": "29", "CVE_MUN": "015", "CVE_LOC": "0151", "CVE_AGEB": "0406", "NOMGEO": "Candiluz Macías" }, "geometry": { "type": "Point", "coordinates": [ -98.376416107999916, 19.302717322999104 ] } },
{ "type": "Feature", "properties": { "CVEGEO": "2901501530035800", "CVE_ENT": "29", "CVE_MUN": "015", "CVE_LOC": "0153", "CVE_AGEB": "0035", "NOMGEO": "Las Torres" }, "geometry": { "type": "Point", "coordinates": [ -98.437678219999938, 19.344009519999116 ] } },
{ "type": "Feature", "properties": { "CVEGEO": "2901500330035800", "CVE_ENT": "29", "CVE_MUN": "015", "CVE_LOC": "0033", "CVE_AGEB": "0035", "NOMGEO": "Santa María" }, "geometry": { "type": "Point", "coordinates": [ -98.431802830999928, 19.361962491999108 ] } },
{ "type": "Feature", "properties": { "CVEGEO": "2901500370035800", "CVE_ENT": "29", "CVE_MUN": "015", "CVE_LOC": "0037", "CVE_AGEB": "0035", "NOMGEO": "Tlapexco" }, "geometry": { "type": "Point", "coordinates": [ -98.429119309999933, 19.352343109999133 ] } },
{ "type": "Feature", "properties": { "CVEGEO": "2901500400035800", "CVE_ENT": "29", "CVE_MUN": "015", "CVE_LOC": "0040", "CVE_AGEB": "0035", "NOMGEO": "La Virgen" }, "geometry": { "type": "Point", "coordinates": [ -98.449698309999931, 19.350084549999139 ] } },
{ "type": "Feature", "properties": { "CVEGEO": "2901500420035800", "CVE_ENT": "29", "CVE_MUN": "015", "CVE_LOC": "0042", "CVE_AGEB": "0035", "NOMGEO": "Las Huertas" }, "geometry": { "type": "Point", "coordinates": [ -98.447606891999911, 19.381599845999112 ] } },
{ "type": "Feature", "properties": { "CVEGEO": "2901500740035800", "CVE_ENT": "29", "CVE_MUN": "015", "CVE_LOC": "0074", "CVE_AGEB": "0035", "NOMGEO": "La Laboría" }, "geometry": { "type": "Point", "coordinates": [ -98.393287059999935, 19.363481659999159 ] } },
{ "type": "Feature", "properties": { "CVEGEO": "2901500760035800", "CVE_ENT": "29", "CVE_MUN": "015", "CVE_LOC": "0076", "CVE_AGEB": "0035", "NOMGEO": "El Sabinal" }, "geometry": { "type": "Point", "coordinates": [ -98.413696676999933, 19.361716645999138 ] } },
{ "type": "Feature", "properties": { "CVEGEO": "2901500770035800", "CVE_ENT": "29", "CVE_MUN": "015", "CVE_LOC": "0077", "CVE_AGEB": "0035", "NOMGEO": "La Suiza [Rancho]" }, "geometry": { "type": "Point", "coordinates": [ -98.440639769999933, 19.374031309999172 ] } },
{ "type": "Feature", "properties": { "CVEGEO": "2901500790035800", "CVE_ENT": "29", "CVE_MUN": "015", "CVE_LOC": "0079", "CVE_AGEB": "0035", "NOMGEO": "Las Coquitas [Rancho]" }, "geometry": { "type": "Point", "coordinates": [ -98.4366124, 19.38388323099911 ] } },
{ "type": "Feature", "properties": { "CVEGEO": "2901500800035800", "CVE_ENT": "29", "CVE_MUN": "015", "CVE_LOC": "0080", "CVE_AGEB": "0035", "NOMGEO": "San Carlos" }, "geometry": { "type": "Point", "coordinates": [ -98.43472052299991, 19.381946522999137 ] } },
{ "type": "Feature", "properties": { "CVEGEO": "2901500810035800", "CVE_ENT": "29", "CVE_MUN": "015", "CVE_LOC": "0081", "CVE_AGEB": "0035", "NOMGEO": "Guillermo Ramírez" }, "geometry": { "type": "Point", "coordinates": [ -98.420456245999915, 19.358543568999153 ] } },
{ "type": "Feature", "properties": { "CVEGEO": "2901501250393800", "CVE_ENT": "29", "CVE_MUN": "015", "CVE_LOC": "0125", "CVE_AGEB": "0393", "NOMGEO": "La Huérfana" }, "geometry": { "type": "Point", "coordinates": [ -98.319918845999908, 19.32187218499919 ] } },
{ "type": "Feature", "properties": { "CVEGEO": "2901501260035800", "CVE_ENT": "29", "CVE_MUN": "015", "CVE_LOC": "0126", "CVE_AGEB": "0035", "NOMGEO": "Leonardo Nájera Díaz" }, "geometry": { "type": "Point", "coordinates": [ -98.386456968999894, 19.32856270799914 ] } },
{ "type": "Feature", "properties": { "CVEGEO": "2901501280035800", "CVE_ENT": "29", "CVE_MUN": "015", "CVE_LOC": "0128", "CVE_AGEB": "0035", "NOMGEO": "El Ranchito" }, "geometry": { "type": "Point", "coordinates": [ -98.374687399999956, 19.340032830999132 ] } },
{ "type": "Feature", "properties": { "CVEGEO": "2901501310393800", "CVE_ENT": "29", "CVE_MUN": "015", "CVE_LOC": "0131", "CVE_AGEB": "0393", "NOMGEO": "Amador Pérez Sánchez" }, "geometry": { "type": "Point", "coordinates": [ -98.336079784999953, 19.372891 ] } },
{ "type": "Feature", "properties": { "CVEGEO": "2901501320035800", "CVE_ENT": "29", "CVE_MUN": "015", "CVE_LOC": "0132", "CVE_AGEB": "0035", "NOMGEO": "La Loma" }, "geometry": { "type": "Point", "coordinates": [ -98.386395891999896, 19.331696630999144 ] } },
{ "type": "Feature", "properties": { "CVEGEO": "2901501340035800", "CVE_ENT": "29", "CVE_MUN": "015", "CVE_LOC": "0134", "CVE_AGEB": "0035", "NOMGEO": "Anselmo García Velázquez" }, "geometry": { "type": "Point", "coordinates": [ -98.443122368999937, 19.370570261999148 ] } },
{ "type": "Feature", "properties": { "CVEGEO": "2901501350035800", "CVE_ENT": "29", "CVE_MUN": "015", "CVE_LOC": "0135", "CVE_AGEB": "0035", "NOMGEO": "Cleotilde Astorga Sánchez" }, "geometry": { "type": "Point", "coordinates": [ -98.407601414999945, 19.414032399999144 ] } },
{ "type": "Feature", "properties": { "CVEGEO": "2901501370035800", "CVE_ENT": "29", "CVE_MUN": "015", "CVE_LOC": "0137", "CVE_AGEB": "0035", "NOMGEO": "Javier Pulido" }, "geometry": { "type": "Point", "coordinates": [ -98.415527061999953, 19.35928075399913 ] } },
{ "type": "Feature", "properties": { "CVEGEO": "2901501380035800", "CVE_ENT": "29", "CVE_MUN": "015", "CVE_LOC": "0138", "CVE_AGEB": "0035", "NOMGEO": "Joaquín Morales" }, "geometry": { "type": "Point", "coordinates": [ -98.439620214999977, 19.352471061999132 ] } },
{ "type": "Feature", "properties": { "CVEGEO": "2901501390035800", "CVE_ENT": "29", "CVE_MUN": "015", "CVE_LOC": "0139", "CVE_AGEB": "0035", "NOMGEO": "Jorge Islas Flores" }, "geometry": { "type": "Point", "coordinates": [ -98.457884, 19.386905676999181 ] } },
{ "type": "Feature", "properties": { "CVEGEO": "2901501540035800", "CVE_ENT": "29", "CVE_MUN": "015", "CVE_LOC": "0154", "CVE_AGEB": "0035", "NOMGEO": "Rancho Escondido" }, "geometry": { "type": "Point", "coordinates": [ -98.391315599999942, 19.32721137999912 ] } },
{ "type": "Feature", "properties": { "CVEGEO": "2901501550035800", "CVE_ENT": "29", "CVE_MUN": "015", "CVE_LOC": "0155", "CVE_AGEB": "0035", "NOMGEO": "San Fernando [Rancho]" }, "geometry": { "type": "Point", "coordinates": [ -98.377886749999917, 19.342520779999099 ] } },
{ "type": "Feature", "properties": { "CVEGEO": "2904400080075800", "CVE_ENT": "29", "CVE_MUN": "044", "CVE_LOC": "0008", "CVE_AGEB": "0075", "NOMGEO": "Campo Dolores" }, "geometry": { "type": "Point", "coordinates": [ -98.263503749999956, 19.175189629999121 ] } },
{ "type": "Feature", "properties": { "CVEGEO": "2904400090075800", "CVE_ENT": "29", "CVE_MUN": "044", "CVE_LOC": "0009", "CVE_AGEB": "0075", "NOMGEO": "Santa Elena" }, "geometry": { "type": "Point", "coordinates": [ -98.271330819999903, 19.177639799999149 ] } },
{ "type": "Feature", "properties": { "CVEGEO": "2904400110075800", "CVE_ENT": "29", "CVE_MUN": "044", "CVE_LOC": "0011", "CVE_AGEB": "0075", "NOMGEO": "La Vega" }, "geometry": { "type": "Point", "coordinates": [ -98.250882919999938, 19.173220849999129 ] } },
{ "type": "Feature", "properties": { "CVEGEO": "2904400120075800", "CVE_ENT": "29", "CVE_MUN": "044", "CVE_LOC": "0012", "CVE_AGEB": "0075", "NOMGEO": "Axexela" }, "geometry": { "type": "Point", "coordinates": [ -98.259928709999912, 19.207374519999131 ] } },
{ "type": "Feature", "properties": { "CVEGEO": "2904400140075800", "CVE_ENT": "29", "CVE_MUN": "044", "CVE_LOC": "0014", "CVE_AGEB": "0075", "NOMGEO": "Las Lamas" }, "geometry": { "type": "Point", "coordinates": [ -98.260451689999954, 19.18321594999912 ] } },
{ "type": "Feature", "properties": { "CVEGEO": "2904400150075800", "CVE_ENT": "29", "CVE_MUN": "044", "CVE_LOC": "0015", "CVE_AGEB": "0075", "NOMGEO": "El Potrero" }, "geometry": { "type": "Point", "coordinates": [ -98.257617779999961, 19.179436999999147 ] } },
{ "type": "Feature", "properties": { "CVEGEO": "2904400160075800", "CVE_ENT": "29", "CVE_MUN": "044", "CVE_LOC": "0016", "CVE_AGEB": "0075", "NOMGEO": "Atenco (Necuentilpa)" }, "geometry": { "type": "Point", "coordinates": [ -98.2566696, 19.203271819999127 ] } },
{ "type": "Feature", "properties": { "CVEGEO": "2904400170075800", "CVE_ENT": "29", "CVE_MUN": "044", "CVE_LOC": "0017", "CVE_AGEB": "0075", "NOMGEO": "La Compuerta" }, "geometry": { "type": "Point", "coordinates": [ -98.260151539999967, 19.191085909999153 ] } },
{ "type": "Feature", "properties": { "CVEGEO": "2904400180075800", "CVE_ENT": "29", "CVE_MUN": "044", "CVE_LOC": "0018", "CVE_AGEB": "0075", "NOMGEO": "Tlatelpa" }, "geometry": { "type": "Point", "coordinates": [ -98.251414829999973, 19.17140971999914 ] } },
{ "type": "Feature", "properties": { "CVEGEO": "2904400190075800", "CVE_ENT": "29", "CVE_MUN": "044", "CVE_LOC": "0019", "CVE_AGEB": "0075", "NOMGEO": "La Bolsa" }, "geometry": { "type": "Point", "coordinates": [ -98.267493519999917, 19.197741649999156 ] } },
{ "type": "Feature", "properties": { "CVEGEO": "2904400200075800", "CVE_ENT": "29", "CVE_MUN": "044", "CVE_LOC": "0020", "CVE_AGEB": "0075", "NOMGEO": "Potrero Largo" }, "geometry": { "type": "Point", "coordinates": [ -98.258643739999954, 19.184784489999092 ] } },
{ "type": "Feature", "properties": { "CVEGEO": "2901400360023800", "CVE_ENT": "29", "CVE_MUN": "014", "CVE_LOC": "0036", "CVE_AGEB": "0023", "NOMGEO": "San Daniel" }, "geometry": { "type": "Point", "coordinates": [ -98.349221845999935, 19.516065984999173 ] } },
{ "type": "Feature", "properties": { "CVEGEO": "2901400590023800", "CVE_ENT": "29", "CVE_MUN": "014", "CVE_LOC": "0059", "CVE_AGEB": "0023", "NOMGEO": "Rancho de las Mariposas" }, "geometry": { "type": "Point", "coordinates": [ -98.297498645999909, 19.484638922999139 ] } },
{ "type": "Feature", "properties": { "CVEGEO": "2901400650023800", "CVE_ENT": "29", "CVE_MUN": "014", "CVE_LOC": "0065", "CVE_AGEB": "0023", "NOMGEO": "Cacho Grande" }, "geometry": { "type": "Point", "coordinates": [ -98.358127199999913, 19.478721937999129 ] } },
{ "type": "Feature", "properties": { "CVEGEO": "2901400700038800", "CVE_ENT": "29", "CVE_MUN": "014", "CVE_LOC": "0070", "CVE_AGEB": "0038", "NOMGEO": "Potrero Grande" }, "geometry": { "type": "Point", "coordinates": [ -98.312806307999907, 19.481111599999167 ] } },
{ "type": "Feature", "properties": { "CVEGEO": "2901400760023800", "CVE_ENT": "29", "CVE_MUN": "014", "CVE_LOC": "0076", "CVE_AGEB": "0023", "NOMGEO": "El Resumidero" }, "geometry": { "type": "Point", "coordinates": [ -98.344461891999927, 19.484517891999122 ] } },
{ "type": "Feature", "properties": { "CVEGEO": "2901400560038800", "CVE_ENT": "29", "CVE_MUN": "014", "CVE_LOC": "0056", "CVE_AGEB": "0038", "NOMGEO": "Onésimo Flores Elizalde (El Cerrito)" }, "geometry": { "type": "Point", "coordinates": [ -98.28427567699994, 19.47462826199914 ] } },
{ "type": "Feature", "properties": { "CVEGEO": "2901400550038800", "CVE_ENT": "29", "CVE_MUN": "014", "CVE_LOC": "0055", "CVE_AGEB": "0038", "NOMGEO": "La Cañada" }, "geometry": { "type": "Point", "coordinates": [ -98.354006369999965, 19.468238379999129 ] } },
{ "type": "Feature", "properties": { "CVEGEO": "2901400790038800", "CVE_ENT": "29", "CVE_MUN": "014", "CVE_LOC": "0079", "CVE_AGEB": "0038", "NOMGEO": "Alejandro Carrillo" }, "geometry": { "type": "Point", "coordinates": [ -98.346417553999956, 19.46139259999914 ] } },
{ "type": "Feature", "properties": { "CVEGEO": "2901400400038800", "CVE_ENT": "29", "CVE_MUN": "014", "CVE_LOC": "0040", "CVE_AGEB": "0038", "NOMGEO": "Las Tortolas" }, "geometry": { "type": "Point", "coordinates": [ -98.311577937999928, 19.433368445999111 ] } },
{ "type": "Feature", "properties": { "CVEGEO": "2901400140023800", "CVE_ENT": "29", "CVE_MUN": "014", "CVE_LOC": "0014", "CVE_AGEB": "0023", "NOMGEO": "Hacienda San Blas Cuaxomulco" }, "geometry": { "type": "Point", "coordinates": [ -98.394418849999937, 19.526437349999128 ] } },
{ "type": "Feature", "properties": { "CVEGEO": "2901400660038800", "CVE_ENT": "29", "CVE_MUN": "014", "CVE_LOC": "0066", "CVE_AGEB": "0038", "NOMGEO": "Rincón del Valle (Las Calaveras)" }, "geometry": { "type": "Point", "coordinates": [ -98.307360291999899, 19.465076368999075 ] } },
{ "type": "Feature", "properties": { "CVEGEO": "2901400520023800", "CVE_ENT": "29", "CVE_MUN": "014", "CVE_LOC": "0052", "CVE_AGEB": "0023", "NOMGEO": "Rancho de la Cruz" }, "geometry": { "type": "Point", "coordinates": [ -98.385788599999941, 19.505598122999121 ] } },
{ "type": "Feature", "properties": { "CVEGEO": "2901400740023800", "CVE_ENT": "29", "CVE_MUN": "014", "CVE_LOC": "0074", "CVE_AGEB": "0023", "NOMGEO": "El Jardín" }, "geometry": { "type": "Point", "coordinates": [ -98.340121968999895, 19.497509537999107 ] } },
{ "type": "Feature", "properties": { "CVEGEO": "2901400150023800", "CVE_ENT": "29", "CVE_MUN": "014", "CVE_LOC": "0015", "CVE_AGEB": "0023", "NOMGEO": "San Fernando" }, "geometry": { "type": "Point", "coordinates": [ -98.311249059999923, 19.528669199999122 ] } },
{ "type": "Feature", "properties": { "CVEGEO": "2901400480023800", "CVE_ENT": "29", "CVE_MUN": "014", "CVE_LOC": "0048", "CVE_AGEB": "0023", "NOMGEO": "La Pedrera" }, "geometry": { "type": "Point", "coordinates": [ -98.342340353999958, 19.520868399999131 ] } },
{ "type": "Feature", "properties": { "CVEGEO": "2901400610038800", "CVE_ENT": "29", "CVE_MUN": "014", "CVE_LOC": "0061", "CVE_AGEB": "0038", "NOMGEO": "Las Cruces" }, "geometry": { "type": "Point", "coordinates": [ -98.36068089199992, 19.476000937999121 ] } },
{ "type": "Feature", "properties": { "CVEGEO": "2901400580038800", "CVE_ENT": "29", "CVE_MUN": "014", "CVE_LOC": "0058", "CVE_AGEB": "0038", "NOMGEO": "La Purísima Dos" }, "geometry": { "type": "Point", "coordinates": [ -98.335386922999945, 19.470082522999149 ] } },
{ "type": "Feature", "properties": { "CVEGEO": "2901400510023800", "CVE_ENT": "29", "CVE_MUN": "014", "CVE_LOC": "0051", "CVE_AGEB": "0023", "NOMGEO": "La Puerta [Rancho]" }, "geometry": { "type": "Point", "coordinates": [ -98.397168553999933, 19.528486368999143 ] } },
{ "type": "Feature", "properties": { "CVEGEO": "2901400620023800", "CVE_ENT": "29", "CVE_MUN": "014", "CVE_LOC": "0062", "CVE_AGEB": "0023", "NOMGEO": "Diego Beristain" }, "geometry": { "type": "Point", "coordinates": [ -98.358799045999902, 19.477289722999164 ] } },
{ "type": "Feature", "properties": { "CVEGEO": "2901400640038800", "CVE_ENT": "29", "CVE_MUN": "014", "CVE_LOC": "0064", "CVE_AGEB": "0038", "NOMGEO": "San Sebastián (Teozopilco)" }, "geometry": { "type": "Point", "coordinates": [ -98.314050953999967, 19.407575214999166 ] } },
{ "type": "Feature", "properties": { "CVEGEO": "2901400670038800", "CVE_ENT": "29", "CVE_MUN": "014", "CVE_LOC": "0067", "CVE_AGEB": "0038", "NOMGEO": "Ignacio Vázquez (El Xocoyotal)" }, "geometry": { "type": "Point", "coordinates": [ -98.325215553999925, 19.401435107999117 ] } },
{ "type": "Feature", "properties": { "CVEGEO": "2901400130023800", "CVE_ENT": "29", "CVE_MUN": "014", "CVE_LOC": "0013", "CVE_AGEB": "0023", "NOMGEO": "San Antonio Techalote" }, "geometry": { "type": "Point", "coordinates": [ -98.360564569999937, 19.527614119999143 ] } },
{ "type": "Feature", "properties": { "CVEGEO": "2901400220038800", "CVE_ENT": "29", "CVE_MUN": "014", "CVE_LOC": "0022", "CVE_AGEB": "0038", "NOMGEO": "Santa Cruz Tenancingo" }, "geometry": { "type": "Point", "coordinates": [ -98.348979168999946, 19.427775891999147 ] } },
{ "type": "Feature", "properties": { "CVEGEO": "2901400280023800", "CVE_ENT": "29", "CVE_MUN": "014", "CVE_LOC": "0028", "CVE_AGEB": "0023", "NOMGEO": "Santo Tomás (El Nopal) [Rancho]" }, "geometry": { "type": "Point", "coordinates": [ -98.3425774299999, 19.541454179999157 ] } },
{ "type": "Feature", "properties": { "CVEGEO": "2901400310038800", "CVE_ENT": "29", "CVE_MUN": "014", "CVE_LOC": "0031", "CVE_AGEB": "0038", "NOMGEO": "Agua Limpia" }, "geometry": { "type": "Point", "coordinates": [ -98.351629649999921, 19.425798449999139 ] } },
{ "type": "Feature", "properties": { "CVEGEO": "2901400680023800", "CVE_ENT": "29", "CVE_MUN": "014", "CVE_LOC": "0068", "CVE_AGEB": "0023", "NOMGEO": "La Laguna" }, "geometry": { "type": "Point", "coordinates": [ -98.340476968999923, 19.474691430999123 ] } },
{ "type": "Feature", "properties": { "CVEGEO": "2901400690023800", "CVE_ENT": "29", "CVE_MUN": "014", "CVE_LOC": "0069", "CVE_AGEB": "0023", "NOMGEO": "Marcos Robles" }, "geometry": { "type": "Point", "coordinates": [ -98.328384476999943, 19.544942245999145 ] } },
{ "type": "Feature", "properties": { "CVEGEO": "2901400710023800", "CVE_ENT": "29", "CVE_MUN": "014", "CVE_LOC": "0071", "CVE_AGEB": "0023", "NOMGEO": "Rancho Dos Hermanos" }, "geometry": { "type": "Point", "coordinates": [ -98.394287676999951, 19.527931814999157 ] } },
{ "type": "Feature", "properties": { "CVEGEO": "2901400720023800", "CVE_ENT": "29", "CVE_MUN": "014", "CVE_LOC": "0072", "CVE_AGEB": "0023", "NOMGEO": "Unidad Ovina Hueyotlipan" }, "geometry": { "type": "Point", "coordinates": [ -98.326586276999961, 19.549025968999143 ] } },
{ "type": "Feature", "properties": { "CVEGEO": "2901400090023800", "CVE_ENT": "29", "CVE_MUN": "014", "CVE_LOC": "0009", "CVE_AGEB": "0023", "NOMGEO": "La Purísima [Rancho]" }, "geometry": { "type": "Point", "coordinates": [ -98.347732722999936, 19.558495061999189 ] } },
{ "type": "Feature", "properties": { "CVEGEO": "2901400330023800", "CVE_ENT": "29", "CVE_MUN": "014", "CVE_LOC": "0033", "CVE_AGEB": "0023", "NOMGEO": "La Loma [Rancho]" }, "geometry": { "type": "Point", "coordinates": [ -98.362984279999964, 19.518314619999135 ] } },
{ "type": "Feature", "properties": { "CVEGEO": "2901400390023800", "CVE_ENT": "29", "CVE_MUN": "014", "CVE_LOC": "0039", "CVE_AGEB": "0023", "NOMGEO": "Loma Bonita" }, "geometry": { "type": "Point", "coordinates": [ -98.360215029999907, 19.517777829999151 ] } },
{ "type": "Feature", "properties": { "CVEGEO": "2901400410023800", "CVE_ENT": "29", "CVE_MUN": "014", "CVE_LOC": "0041", "CVE_AGEB": "0023", "NOMGEO": "El Durazno" }, "geometry": { "type": "Point", "coordinates": [ -98.39754146199995, 19.524346122999127 ] } },
{ "type": "Feature", "properties": { "CVEGEO": "2901400420023800", "CVE_ENT": "29", "CVE_MUN": "014", "CVE_LOC": "0042", "CVE_AGEB": "0023", "NOMGEO": "El Pilar [Rancho]" }, "geometry": { "type": "Point", "coordinates": [ -98.349345149999948, 19.537673119999102 ] } },
{ "type": "Feature", "properties": { "CVEGEO": "2901400430023800", "CVE_ENT": "29", "CVE_MUN": "014", "CVE_LOC": "0043", "CVE_AGEB": "0023", "NOMGEO": "Santa Lucía" }, "geometry": { "type": "Point", "coordinates": [ -98.354406937999926, 19.542206368999125 ] } },
{ "type": "Feature", "properties": { "CVEGEO": "2901400450023800", "CVE_ENT": "29", "CVE_MUN": "014", "CVE_LOC": "0045", "CVE_AGEB": "0023", "NOMGEO": "Emilio Sánchez Piedras" }, "geometry": { "type": "Point", "coordinates": [ -98.391776153999942, 19.514279968999098 ] } },
{ "type": "Feature", "properties": { "CVEGEO": "2901400460023800", "CVE_ENT": "29", "CVE_MUN": "014", "CVE_LOC": "0046", "CVE_AGEB": "0023", "NOMGEO": "Hacienda San Fernando" }, "geometry": { "type": "Point", "coordinates": [ -98.314626549999943, 19.528893339999115 ] } },
{ "type": "Feature", "properties": { "CVEGEO": "2901400470023800", "CVE_ENT": "29", "CVE_MUN": "014", "CVE_LOC": "0047", "CVE_AGEB": "0023", "NOMGEO": "El Novillo" }, "geometry": { "type": "Point", "coordinates": [ -98.412555969999929, 19.525981819999096 ] } },
{ "type": "Feature", "properties": { "CVEGEO": "2901400500023800", "CVE_ENT": "29", "CVE_MUN": "014", "CVE_LOC": "0050", "CVE_AGEB": "0023", "NOMGEO": "Los Cuates [Rancho]" }, "geometry": { "type": "Point", "coordinates": [ -98.350769229999926, 19.552152849999111 ] } },
{ "type": "Feature", "properties": { "CVEGEO": "2901400540038800", "CVE_ENT": "29", "CVE_MUN": "014", "CVE_LOC": "0054", "CVE_AGEB": "0038", "NOMGEO": "Los Tesoros" }, "geometry": { "type": "Point", "coordinates": [ -98.365696922999945, 19.420880153999114 ] } },
{ "type": "Feature", "properties": { "CVEGEO": "2900500160170800", "CVE_ENT": "29", "CVE_MUN": "005", "CVE_LOC": "0016", "CVE_AGEB": "0170", "NOMGEO": "Atenco" }, "geometry": { "type": "Point", "coordinates": [ -98.14608049, 19.426750119999127 ] } },
{ "type": "Feature", "properties": { "CVEGEO": "2900500170170800", "CVE_ENT": "29", "CVE_MUN": "005", "CVE_LOC": "0017", "CVE_AGEB": "0170", "NOMGEO": "Ejido de San Dionisio" }, "geometry": { "type": "Point", "coordinates": [ -98.173136019999916, 19.466826429999116 ] } },
{ "type": "Feature", "properties": { "CVEGEO": "2900500180170800", "CVE_ENT": "29", "CVE_MUN": "005", "CVE_LOC": "0018", "CVE_AGEB": "0170", "NOMGEO": "Ejido de Xaltocan" }, "geometry": { "type": "Point", "coordinates": [ -98.177186645999896, 19.457241337999182 ] } },
{ "type": "Feature", "properties": { "CVEGEO": "2900500230170800", "CVE_ENT": "29", "CVE_MUN": "005", "CVE_LOC": "0023", "CVE_AGEB": "0170", "NOMGEO": "Cuarta Manzana" }, "geometry": { "type": "Point", "coordinates": [ -98.152704199999931, 19.45875087699913 ] } },
{ "type": "Feature", "properties": { "CVEGEO": "2900500330170800", "CVE_ENT": "29", "CVE_MUN": "005", "CVE_LOC": "0033", "CVE_AGEB": "0170", "NOMGEO": "Primera Sección" }, "geometry": { "type": "Point", "coordinates": [ -98.148869459999915, 19.450087259999094 ] } },
{ "type": "Feature", "properties": { "CVEGEO": "2900500110170800", "CVE_ENT": "29", "CVE_MUN": "005", "CVE_LOC": "0011", "CVE_AGEB": "0170", "NOMGEO": "Actipan" }, "geometry": { "type": "Point", "coordinates": [ -98.149723889999919, 19.44480613999907 ] } },
{ "type": "Feature", "properties": { "CVEGEO": "2900500210170800", "CVE_ENT": "29", "CVE_MUN": "005", "CVE_LOC": "0021", "CVE_AGEB": "0170", "NOMGEO": "San José Tetel (La Quebradora)" }, "geometry": { "type": "Point", "coordinates": [ -98.147302849999932, 19.437389149999127 ] } },
{ "type": "Feature", "properties": { "CVEGEO": "2900500290236800", "CVE_ENT": "29", "CVE_MUN": "005", "CVE_LOC": "0029", "CVE_AGEB": "0236", "NOMGEO": "Unidad Deportiva" }, "geometry": { "type": "Point", "coordinates": [ -98.079526539999918, 19.403456659999176 ] } },
{ "type": "Feature", "properties": { "CVEGEO": "2900500200170800", "CVE_ENT": "29", "CVE_MUN": "005", "CVE_LOC": "0020", "CVE_AGEB": "0170", "NOMGEO": "Parada de la Virgen" }, "geometry": { "type": "Point", "coordinates": [ -98.146835399999944, 19.449148229999128 ] } },
{ "type": "Feature", "properties": { "CVEGEO": "2900500280236800", "CVE_ENT": "29", "CVE_MUN": "005", "CVE_LOC": "0028", "CVE_AGEB": "0236", "NOMGEO": "La Vía (Colonia el Silbato)" }, "geometry": { "type": "Point", "coordinates": [ -98.0864377199999, 19.40595677999913 ] } },
{ "type": "Feature", "properties": { "CVEGEO": "2900500310170800", "CVE_ENT": "29", "CVE_MUN": "005", "CVE_LOC": "0031", "CVE_AGEB": "0170", "NOMGEO": "El Porvenir [Rancho]" }, "geometry": { "type": "Point", "coordinates": [ -98.154984459999966, 19.451683449999159 ] } },
{ "type": "Feature", "properties": { "CVEGEO": "2900500220170800", "CVE_ENT": "29", "CVE_MUN": "005", "CVE_LOC": "0022", "CVE_AGEB": "0170", "NOMGEO": "Francisco Moreno Morales" }, "geometry": { "type": "Point", "coordinates": [ -98.147754319999976, 19.456753969999106 ] } },
{ "type": "Feature", "properties": { "CVEGEO": "2900500250170800", "CVE_ENT": "29", "CVE_MUN": "005", "CVE_LOC": "0025", "CVE_AGEB": "0170", "NOMGEO": "Máximo Huerta Cortés" }, "geometry": { "type": "Point", "coordinates": [ -98.177109737999942, 19.449391107999123 ] } },
{ "type": "Feature", "properties": { "CVEGEO": "2900500040170800", "CVE_ENT": "29", "CVE_MUN": "005", "CVE_LOC": "0004", "CVE_AGEB": "0170", "NOMGEO": "Jagüey Prieto" }, "geometry": { "type": "Point", "coordinates": [ -98.165285539999942, 19.442740459999118 ] } },
{ "type": "Feature", "properties": { "CVEGEO": "2900500260170800", "CVE_ENT": "29", "CVE_MUN": "005", "CVE_LOC": "0026", "CVE_AGEB": "0170", "NOMGEO": "Tlalcoyotla" }, "geometry": { "type": "Point", "coordinates": [ -98.161336891999909, 19.445464799999119 ] } },
{ "type": "Feature", "properties": { "CVEGEO": "2900500320170800", "CVE_ENT": "29", "CVE_MUN": "005", "CVE_LOC": "0032", "CVE_AGEB": "0170", "NOMGEO": "Ejido de Santa Úrsula" }, "geometry": { "type": "Point", "coordinates": [ -98.153619089999907, 19.441841579999153 ] } },
{ "type": "Feature", "properties": { "CVEGEO": "2900500240170800", "CVE_ENT": "29", "CVE_MUN": "005", "CVE_LOC": "0024", "CVE_AGEB": "0170", "NOMGEO": "Horcasitas" }, "geometry": { "type": "Point", "coordinates": [ -98.177806449999949, 19.43816421999913 ] } },
{ "type": "Feature", "properties": { "CVEGEO": "2900500190236800", "CVE_ENT": "29", "CVE_MUN": "005", "CVE_LOC": "0019", "CVE_AGEB": "0236", "NOMGEO": "Los Gemelos [Rancho]" }, "geometry": { "type": "Point", "coordinates": [ -98.0836170199999, 19.406077399999152 ] } },
{ "type": "Feature", "properties": { "CVEGEO": "2900500270236800", "CVE_ENT": "29", "CVE_MUN": "005", "CVE_LOC": "0027", "CVE_AGEB": "0236", "NOMGEO": "Tochac" }, "geometry": { "type": "Point", "coordinates": [ -98.075201122999928, 19.413621830999155 ] } },
{ "type": "Feature", "properties": { "CVEGEO": "2900500340170800", "CVE_ENT": "29", "CVE_MUN": "005", "CVE_LOC": "0034", "CVE_AGEB": "0170", "NOMGEO": "Rancho Minerva" }, "geometry": { "type": "Point", "coordinates": [ -98.154944719999904, 19.44855036999919 ] } },
{ "type": "Feature", "properties": { "CVEGEO": "2903500030019800", "CVE_ENT": "29", "CVE_MUN": "035", "CVE_LOC": "0003", "CVE_AGEB": "0019", "NOMGEO": "Acocotla" }, "geometry": { "type": "Point", "coordinates": [ -98.023656429999932, 19.373212289999099 ] } },
{ "type": "Feature", "properties": { "CVEGEO": "2903500040019800", "CVE_ENT": "29", "CVE_MUN": "035", "CVE_LOC": "0004", "CVE_AGEB": "0019", "NOMGEO": "La Cañada" }, "geometry": { "type": "Point", "coordinates": [ -98.007935679999903, 19.385546059999072 ] } },
{ "type": "Feature", "properties": { "CVEGEO": "2901800090037800", "CVE_ENT": "29", "CVE_MUN": "018", "CVE_LOC": "0009", "CVE_AGEB": "0037", "NOMGEO": "Capula" }, "geometry": { "type": "Point", "coordinates": [ -98.104951459999896, 19.320437219999153 ] } },
{ "type": "Feature", "properties": { "CVEGEO": "2901800110037800", "CVE_ENT": "29", "CVE_MUN": "018", "CVE_LOC": "0011", "CVE_AGEB": "0037", "NOMGEO": "Rancho Hueyicuentla" }, "geometry": { "type": "Point", "coordinates": [ -98.143419969999925, 19.330679309999123 ] } },
{ "type": "Feature", "properties": { "CVEGEO": "2901800120037800", "CVE_ENT": "29", "CVE_MUN": "018", "CVE_LOC": "0012", "CVE_AGEB": "0037", "NOMGEO": "Zacatepanco" }, "geometry": { "type": "Point", "coordinates": [ -98.092433579999948, 19.320568649999139 ] } },
{ "type": "Feature", "properties": { "CVEGEO": "290590003003A800", "CVE_ENT": "29", "CVE_MUN": "059", "CVE_LOC": "0003", "CVE_AGEB": "003A", "NOMGEO": "Anal" }, "geometry": { "type": "Point", "coordinates": [ -98.197117629999951, 19.213283489999114 ] } },
{ "type": "Feature", "properties": { "CVEGEO": "2902600180058800", "CVE_ENT": "29", "CVE_MUN": "026", "CVE_LOC": "0018", "CVE_AGEB": "0058", "NOMGEO": "Alejandro Peña Conde" }, "geometry": { "type": "Point", "coordinates": [ -98.115207939999934, 19.318192769999147 ] } },
{ "type": "Feature", "properties": { "CVEGEO": "2902600190058800", "CVE_ENT": "29", "CVE_MUN": "026", "CVE_LOC": "0019", "CVE_AGEB": "0058", "NOMGEO": "Tetzotzocola" }, "geometry": { "type": "Point", "coordinates": [ -98.134426279999943, 19.35389556999915 ] } },
{ "type": "Feature", "properties": { "CVEGEO": "2902600210058800", "CVE_ENT": "29", "CVE_MUN": "026", "CVE_LOC": "0021", "CVE_AGEB": "0058", "NOMGEO": "El Tesoro (Bautista) [Rancho]" }, "geometry": { "type": "Point", "coordinates": [ -98.127920309999965, 19.352478979999159 ] } },
{ "type": "Feature", "properties": { "CVEGEO": "2902600220058800", "CVE_ENT": "29", "CVE_MUN": "026", "CVE_LOC": "0022", "CVE_AGEB": "0058", "NOMGEO": "Cuyoaco" }, "geometry": { "type": "Point", "coordinates": [ -98.129517849999914, 19.354979949999102 ] } },
{ "type": "Feature", "properties": { "CVEGEO": "2902600230058800", "CVE_ENT": "29", "CVE_MUN": "026", "CVE_LOC": "0023", "CVE_AGEB": "0058", "NOMGEO": "Coxtla" }, "geometry": { "type": "Point", "coordinates": [ -98.121187879999937, 19.348686979999076 ] } },
{ "type": "Feature", "properties": { "CVEGEO": "2902600250058800", "CVE_ENT": "29", "CVE_MUN": "026", "CVE_LOC": "0025", "CVE_AGEB": "0058", "NOMGEO": "San Lorenzo Xaltelulco" }, "geometry": { "type": "Point", "coordinates": [ -98.107119289999929, 19.338317449999117 ] } },
{ "type": "Feature", "properties": { "CVEGEO": "2902600260058800", "CVE_ENT": "29", "CVE_MUN": "026", "CVE_LOC": "0026", "CVE_AGEB": "0058", "NOMGEO": "Luis Reyes" }, "geometry": { "type": "Point", "coordinates": [ -98.119726019999959, 19.322298799999132 ] } },
{ "type": "Feature", "properties": { "CVEGEO": "2905400020033800", "CVE_ENT": "29", "CVE_MUN": "054", "CVE_LOC": "0002", "CVE_AGEB": "0033", "NOMGEO": "El Rancho" }, "geometry": { "type": "Point", "coordinates": [ -98.255649719999923, 19.215928689999149 ] } },
{ "type": "Feature", "properties": { "CVEGEO": "2902700120021800", "CVE_ENT": "29", "CVE_MUN": "027", "CVE_LOC": "0012", "CVE_AGEB": "0021", "NOMGEO": "La Renda" }, "geometry": { "type": "Point", "coordinates": [ -98.192895045999947, 19.150123384999134 ] } },
{ "type": "Feature", "properties": { "CVEGEO": "2902700110021800", "CVE_ENT": "29", "CVE_MUN": "027", "CVE_LOC": "0011", "CVE_AGEB": "0021", "NOMGEO": "Tepepantlalpa (Magdalena Reyes)" }, "geometry": { "type": "Point", "coordinates": [ -98.1821870199999, 19.15012710999909 ] } },
{ "type": "Feature", "properties": { "CVEGEO": "2902700130021800", "CVE_ENT": "29", "CVE_MUN": "027", "CVE_LOC": "0013", "CVE_AGEB": "0021", "NOMGEO": "Tecoac" }, "geometry": { "type": "Point", "coordinates": [ -98.184923379999958, 19.160859509999089 ] } },
{ "type": "Feature", "properties": { "CVEGEO": "2902700070021800", "CVE_ENT": "29", "CVE_MUN": "027", "CVE_LOC": "0007", "CVE_AGEB": "0021", "NOMGEO": "Concepción Acopilco" }, "geometry": { "type": "Point", "coordinates": [ -98.187670430999944, 19.138584553999099 ] } },
{ "type": "Feature", "properties": { "CVEGEO": "2902700100021800", "CVE_ENT": "29", "CVE_MUN": "027", "CVE_LOC": "0010", "CVE_AGEB": "0021", "NOMGEO": "El Puente" }, "geometry": { "type": "Point", "coordinates": [ -98.191484019999933, 19.140645139999158 ] } },
{ "type": "Feature", "properties": { "CVEGEO": "2900700100029800", "CVE_ENT": "29", "CVE_MUN": "007", "CVE_LOC": "0010", "CVE_AGEB": "0029", "NOMGEO": "Sebastián García" }, "geometry": { "type": "Point", "coordinates": [ -97.678104199999908, 19.330974369999122 ] } },
{ "type": "Feature", "properties": { "CVEGEO": "2900700030029800", "CVE_ENT": "29", "CVE_MUN": "007", "CVE_LOC": "0003", "CVE_AGEB": "0029", "NOMGEO": "Ocotlán Temalacayucan" }, "geometry": { "type": "Point", "coordinates": [ -97.698609949999963, 19.298815369999161 ] } },
{ "type": "Feature", "properties": { "CVEGEO": "2904000180254800", "CVE_ENT": "29", "CVE_MUN": "040", "CVE_LOC": "0018", "CVE_AGEB": "0254", "NOMGEO": "Atzacoalco" }, "geometry": { "type": "Point", "coordinates": [ -98.203081030999925, 19.378568168999134 ] } },
{ "type": "Feature", "properties": { "CVEGEO": "2904000200023800", "CVE_ENT": "29", "CVE_MUN": "040", "CVE_LOC": "0020", "CVE_AGEB": "0023", "NOMGEO": "Agua Bendita" }, "geometry": { "type": "Point", "coordinates": [ -98.247406259999963, 19.443284799999144 ] } },
{ "type": "Feature", "properties": { "CVEGEO": "2904000250023800", "CVE_ENT": "29", "CVE_MUN": "040", "CVE_LOC": "0025", "CVE_AGEB": "0023", "NOMGEO": "San Joaquín" }, "geometry": { "type": "Point", "coordinates": [ -98.240711279999942, 19.434579649999097 ] } },
{ "type": "Feature", "properties": { "CVEGEO": "2904000270023800", "CVE_ENT": "29", "CVE_MUN": "040", "CVE_LOC": "0027", "CVE_AGEB": "0023", "NOMGEO": "Vista Hermosa" }, "geometry": { "type": "Point", "coordinates": [ -98.262713907999924, 19.440575261999118 ] } },
{ "type": "Feature", "properties": { "CVEGEO": "2904000600023800", "CVE_ENT": "29", "CVE_MUN": "040", "CVE_LOC": "0060", "CVE_AGEB": "0023", "NOMGEO": "Lomas de Rubí" }, "geometry": { "type": "Point", "coordinates": [ -98.236604599999922, 19.432923859999132 ] } },
{ "type": "Feature", "properties": { "CVEGEO": "2904000070023800", "CVE_ENT": "29", "CVE_MUN": "040", "CVE_LOC": "0007", "CVE_AGEB": "0023", "NOMGEO": "La Retama" }, "geometry": { "type": "Point", "coordinates": [ -98.257226429999903, 19.450927889999129 ] } },
{ "type": "Feature", "properties": { "CVEGEO": "2904000460023800", "CVE_ENT": "29", "CVE_MUN": "040", "CVE_LOC": "0046", "CVE_AGEB": "0023", "NOMGEO": "Orcasitas" }, "geometry": { "type": "Point", "coordinates": [ -98.192246689999948, 19.461356939999103 ] } },
{ "type": "Feature", "properties": { "CVEGEO": "2904000470023800", "CVE_ENT": "29", "CVE_MUN": "040", "CVE_LOC": "0047", "CVE_AGEB": "0023", "NOMGEO": "Pedro Fernández" }, "geometry": { "type": "Point", "coordinates": [ -98.215771476999947, 19.471286030999114 ] } },
{ "type": "Feature", "properties": { "CVEGEO": "2904000480023800", "CVE_ENT": "29", "CVE_MUN": "040", "CVE_LOC": "0048", "CVE_AGEB": "0023", "NOMGEO": "Rancho Alva" }, "geometry": { "type": "Point", "coordinates": [ -98.180723476999916, 19.433177861999081 ] } },
{ "type": "Feature", "properties": { "CVEGEO": "2904000490023800", "CVE_ENT": "29", "CVE_MUN": "040", "CVE_LOC": "0049", "CVE_AGEB": "0023", "NOMGEO": "Rancho Zárate" }, "geometry": { "type": "Point", "coordinates": [ -98.190130829999944, 19.457056519999124 ] } },
{ "type": "Feature", "properties": { "CVEGEO": "2904000500023800", "CVE_ENT": "29", "CVE_MUN": "040", "CVE_LOC": "0050", "CVE_AGEB": "0023", "NOMGEO": "Roberto Durán" }, "geometry": { "type": "Point", "coordinates": [ -98.197042076999949, 19.461391168999118 ] } },
{ "type": "Feature", "properties": { "CVEGEO": "2904000510023800", "CVE_ENT": "29", "CVE_MUN": "040", "CVE_LOC": "0051", "CVE_AGEB": "0023", "NOMGEO": "Rubén Sánchez" }, "geometry": { "type": "Point", "coordinates": [ -98.192907661999939, 19.464020768999138 ] } },
{ "type": "Feature", "properties": { "CVEGEO": "2904000540023800", "CVE_ENT": "29", "CVE_MUN": "040", "CVE_LOC": "0054", "CVE_AGEB": "0023", "NOMGEO": "Rancho Alegre" }, "geometry": { "type": "Point", "coordinates": [ -98.180293661999897, 19.455757984999146 ] } },
{ "type": "Feature", "properties": { "CVEGEO": "2904000550023800", "CVE_ENT": "29", "CVE_MUN": "040", "CVE_LOC": "0055", "CVE_AGEB": "0023", "NOMGEO": "San Pedro" }, "geometry": { "type": "Point", "coordinates": [ -98.18721595399991, 19.449672907999091 ] } },
{ "type": "Feature", "properties": { "CVEGEO": "2904000560023800", "CVE_ENT": "29", "CVE_MUN": "040", "CVE_LOC": "0056", "CVE_AGEB": "0023", "NOMGEO": "Jesús Quintero" }, "geometry": { "type": "Point", "coordinates": [ -98.217566, 19.463954829999143 ] } },
{ "type": "Feature", "properties": { "CVEGEO": "2904000340023800", "CVE_ENT": "29", "CVE_MUN": "040", "CVE_LOC": "0034", "CVE_AGEB": "0023", "NOMGEO": "Estela Sánchez Rodríguez" }, "geometry": { "type": "Point", "coordinates": [ -98.285100709999895, 19.481750709999112 ] } },
{ "type": "Feature", "properties": { "CVEGEO": "2904000350254800", "CVE_ENT": "29", "CVE_MUN": "040", "CVE_LOC": "0035", "CVE_AGEB": "0254", "NOMGEO": "Lanexapa" }, "geometry": { "type": "Point", "coordinates": [ -98.242370645999941, 19.430352168999139 ] } },
{ "type": "Feature", "properties": { "CVEGEO": "2904000360023800", "CVE_ENT": "29", "CVE_MUN": "040", "CVE_LOC": "0036", "CVE_AGEB": "0023", "NOMGEO": "Cinco Santos" }, "geometry": { "type": "Point", "coordinates": [ -98.220573919999921, 19.466290509999101 ] } },
{ "type": "Feature", "properties": { "CVEGEO": "2904000380023800", "CVE_ENT": "29", "CVE_MUN": "040", "CVE_LOC": "0038", "CVE_AGEB": "0023", "NOMGEO": "Ernesto Ramírez Flores (Rancho Paraíso)" }, "geometry": { "type": "Point", "coordinates": [ -98.214874799999933, 19.456932876999144 ] } },
{ "type": "Feature", "properties": { "CVEGEO": "2904000390023800", "CVE_ENT": "29", "CVE_MUN": "040", "CVE_LOC": "0039", "CVE_AGEB": "0023", "NOMGEO": "Valentín Flores Hernández" }, "geometry": { "type": "Point", "coordinates": [ -98.213160630999894, 19.47820438499911 ] } },
{ "type": "Feature", "properties": { "CVEGEO": "2904000400023800", "CVE_ENT": "29", "CVE_MUN": "040", "CVE_LOC": "0040", "CVE_AGEB": "0023", "NOMGEO": "Jagüey Prieto" }, "geometry": { "type": "Point", "coordinates": [ -98.181352229999916, 19.442346339999119 ] } },
{ "type": "Feature", "properties": { "CVEGEO": "2904000410023800", "CVE_ENT": "29", "CVE_MUN": "040", "CVE_LOC": "0041", "CVE_AGEB": "0023", "NOMGEO": "La Laguna" }, "geometry": { "type": "Point", "coordinates": [ -98.199213984999957, 19.454244353999119 ] } },
{ "type": "Feature", "properties": { "CVEGEO": "2904000440023800", "CVE_ENT": "29", "CVE_MUN": "040", "CVE_LOC": "0044", "CVE_AGEB": "0023", "NOMGEO": "Nueva Ampliación Adolfo Ruiz Cortínez" }, "geometry": { "type": "Point", "coordinates": [ -98.214075907999941, 19.465059953999113 ] } },
{ "type": "Feature", "properties": { "CVEGEO": "2904000450023800", "CVE_ENT": "29", "CVE_MUN": "040", "CVE_LOC": "0045", "CVE_AGEB": "0023", "NOMGEO": "Nueva Ampliación Camino a Xaltocan" }, "geometry": { "type": "Point", "coordinates": [ -98.207770569999965, 19.467129149999135 ] } },
{ "type": "Feature", "properties": { "CVEGEO": "2904000570023800", "CVE_ENT": "29", "CVE_MUN": "040", "CVE_LOC": "0057", "CVE_AGEB": "0023", "NOMGEO": "María Eugenia García (El Cerro)" }, "geometry": { "type": "Point", "coordinates": [ -98.281352169999963, 19.476135849999128 ] } },
{ "type": "Feature", "properties": { "CVEGEO": "2904000580023800", "CVE_ENT": "29", "CVE_MUN": "040", "CVE_LOC": "0058", "CVE_AGEB": "0023", "NOMGEO": "San Isidro" }, "geometry": { "type": "Point", "coordinates": [ -98.189364249999954, 19.435764459999117 ] } },
{ "type": "Feature", "properties": { "CVEGEO": "2904000590023800", "CVE_ENT": "29", "CVE_MUN": "040", "CVE_LOC": "0059", "CVE_AGEB": "0023", "NOMGEO": "Zozoquítla" }, "geometry": { "type": "Point", "coordinates": [ -98.190871139999928, 19.440328309999128 ] } },
{ "type": "Feature", "properties": { "CVEGEO": "2903300210423800", "CVE_ENT": "29", "CVE_MUN": "033", "CVE_LOC": "0021", "CVE_AGEB": "0423", "NOMGEO": "La Era" }, "geometry": { "type": "Point", "coordinates": [ -98.219976445999933, 19.370802999999132 ] } },
{ "type": "Feature", "properties": { "CVEGEO": "2903300220423800", "CVE_ENT": "29", "CVE_MUN": "033", "CVE_LOC": "0022", "CVE_AGEB": "0423", "NOMGEO": "Cruz Blanca" }, "geometry": { "type": "Point", "coordinates": [ -98.217531876999914, 19.367388061999087 ] } },
{ "type": "Feature", "properties": { "CVEGEO": "2903300230423800", "CVE_ENT": "29", "CVE_MUN": "033", "CVE_LOC": "0023", "CVE_AGEB": "0423", "NOMGEO": "Potrero Grande" }, "geometry": { "type": "Point", "coordinates": [ -98.218160649999916, 19.360329309999141 ] } },
{ "type": "Feature", "properties": { "CVEGEO": "2903300240423800", "CVE_ENT": "29", "CVE_MUN": "033", "CVE_LOC": "0024", "CVE_AGEB": "0423", "NOMGEO": "Potrero Chico" }, "geometry": { "type": "Point", "coordinates": [ -98.215975614999948, 19.356994676999129 ] } },
{ "type": "Feature", "properties": { "CVEGEO": "2903300270423800", "CVE_ENT": "29", "CVE_MUN": "033", "CVE_LOC": "0027", "CVE_AGEB": "0423", "NOMGEO": "San Isidro [Rancho]" }, "geometry": { "type": "Point", "coordinates": [ -98.212252630999927, 19.354929891999099 ] } },
{ "type": "Feature", "properties": { "CVEGEO": "290250018007A800", "CVE_ENT": "29", "CVE_MUN": "025", "CVE_LOC": "0018", "CVE_AGEB": "007A", "NOMGEO": "Patlaguactetl" }, "geometry": { "type": "Point", "coordinates": [ -98.11288633799991, 19.172644307999128 ] } },
{ "type": "Feature", "properties": { "CVEGEO": "290250024007A800", "CVE_ENT": "29", "CVE_MUN": "025", "CVE_LOC": "0024", "CVE_AGEB": "007A", "NOMGEO": "Cacamila San Antonio" }, "geometry": { "type": "Point", "coordinates": [ -98.126257507999966, 19.151097461999107 ] } },
{ "type": "Feature", "properties": { "CVEGEO": "290250025007A800", "CVE_ENT": "29", "CVE_MUN": "025", "CVE_LOC": "0025", "CVE_AGEB": "007A", "NOMGEO": "Calaquiotli" }, "geometry": { "type": "Point", "coordinates": [ -98.121813, 19.183040245999177 ] } },
{ "type": "Feature", "properties": { "CVEGEO": "290250026007A800", "CVE_ENT": "29", "CVE_MUN": "025", "CVE_LOC": "0026", "CVE_AGEB": "007A", "NOMGEO": "Cuententzinco" }, "geometry": { "type": "Point", "coordinates": [ -98.113479509999948, 19.168041029999134 ] } },
{ "type": "Feature", "properties": { "CVEGEO": "290250027007A800", "CVE_ENT": "29", "CVE_MUN": "025", "CVE_LOC": "0027", "CVE_AGEB": "007A", "NOMGEO": "Mulatla" }, "geometry": { "type": "Point", "coordinates": [ -98.128202014999914, 19.177484968999117 ] } },
{ "type": "Feature", "properties": { "CVEGEO": "290250003007A800", "CVE_ENT": "29", "CVE_MUN": "025", "CVE_LOC": "0003", "CVE_AGEB": "007A", "NOMGEO": "Ex-Hacienda Guadalupe Xaltelulco" }, "geometry": { "type": "Point", "coordinates": [ -98.141073739999953, 19.175127889999143 ] } },
{ "type": "Feature", "properties": { "CVEGEO": "290250014007A800", "CVE_ENT": "29", "CVE_MUN": "025", "CVE_LOC": "0014", "CVE_AGEB": "007A", "NOMGEO": "Pipilatzi" }, "geometry": { "type": "Point", "coordinates": [ -98.142462859999938, 19.140408149999104 ] } },
{ "type": "Feature", "properties": { "CVEGEO": "290250019007A800", "CVE_ENT": "29", "CVE_MUN": "025", "CVE_LOC": "0019", "CVE_AGEB": "007A", "NOMGEO": "Popozotzi" }, "geometry": { "type": "Point", "coordinates": [ -98.101384889999935, 19.168526029999143 ] } },
{ "type": "Feature", "properties": { "CVEGEO": "290250022007A800", "CVE_ENT": "29", "CVE_MUN": "025", "CVE_LOC": "0022", "CVE_AGEB": "007A", "NOMGEO": "Hueyocotl" }, "geometry": { "type": "Point", "coordinates": [ -98.118092014999903, 19.160181414999148 ] } },
{ "type": "Feature", "properties": { "CVEGEO": "290250031007A800", "CVE_ENT": "29", "CVE_MUN": "025", "CVE_LOC": "0031", "CVE_AGEB": "007A", "NOMGEO": "Juquila" }, "geometry": { "type": "Point", "coordinates": [ -98.116812909999936, 19.161096939999123 ] } },
{ "type": "Feature", "properties": { "CVEGEO": "290250040007A800", "CVE_ENT": "29", "CVE_MUN": "025", "CVE_LOC": "0040", "CVE_AGEB": "007A", "NOMGEO": "Pilazol" }, "geometry": { "type": "Point", "coordinates": [ -98.119411737999926, 19.157758553999148 ] } },
{ "type": "Feature", "properties": { "CVEGEO": "290250032007A800", "CVE_ENT": "29", "CVE_MUN": "025", "CVE_LOC": "0032", "CVE_AGEB": "007A", "NOMGEO": "Perestlali" }, "geometry": { "type": "Point", "coordinates": [ -98.161666549999907, 19.13888647999913 ] } },
{ "type": "Feature", "properties": { "CVEGEO": "290250033007A800", "CVE_ENT": "29", "CVE_MUN": "025", "CVE_LOC": "0033", "CVE_AGEB": "007A", "NOMGEO": "Presa Conetl" }, "geometry": { "type": "Point", "coordinates": [ -98.155277659999939, 19.144719819999146 ] } },
{ "type": "Feature", "properties": { "CVEGEO": "290250034007A800", "CVE_ENT": "29", "CVE_MUN": "025", "CVE_LOC": "0034", "CVE_AGEB": "007A", "NOMGEO": "Tlapitzac" }, "geometry": { "type": "Point", "coordinates": [ -98.163333219999942, 19.136108709999096 ] } },
{ "type": "Feature", "properties": { "CVEGEO": "290250038007A800", "CVE_ENT": "29", "CVE_MUN": "025", "CVE_LOC": "0038", "CVE_AGEB": "007A", "NOMGEO": "Moxontitla" }, "geometry": { "type": "Point", "coordinates": [ -98.121128907999932, 19.147352768999152 ] } },
{ "type": "Feature", "properties": { "CVEGEO": "290250045007A800", "CVE_ENT": "29", "CVE_MUN": "025", "CVE_LOC": "0045", "CVE_AGEB": "007A", "NOMGEO": "Tepechihuatl" }, "geometry": { "type": "Point", "coordinates": [ -98.139553019999923, 19.12955077999915 ] } },
{ "type": "Feature", "properties": { "CVEGEO": "290250046007A800", "CVE_ENT": "29", "CVE_MUN": "025", "CVE_LOC": "0046", "CVE_AGEB": "007A", "NOMGEO": "Xahuentlatempa" }, "geometry": { "type": "Point", "coordinates": [ -98.122085059999918, 19.144205489999141 ] } },
{ "type": "Feature", "properties": { "CVEGEO": "290250048007A800", "CVE_ENT": "29", "CVE_MUN": "025", "CVE_LOC": "0048", "CVE_AGEB": "007A", "NOMGEO": "Itecac Piltzintli" }, "geometry": { "type": "Point", "coordinates": [ -98.117442339999954, 19.165359879999123 ] } },
{ "type": "Feature", "properties": { "CVEGEO": "290250012007A800", "CVE_ENT": "29", "CVE_MUN": "025", "CVE_LOC": "0012", "CVE_AGEB": "007A", "NOMGEO": "Xoyacolotzi" }, "geometry": { "type": "Point", "coordinates": [ -98.134962619999925, 19.136241819999178 ] } },
{ "type": "Feature", "properties": { "CVEGEO": "290250015007A800", "CVE_ENT": "29", "CVE_MUN": "025", "CVE_LOC": "0015", "CVE_AGEB": "007A", "NOMGEO": "San Isidroso (Coyotera)" }, "geometry": { "type": "Point", "coordinates": [ -98.143574091999895, 19.125964753999146 ] } },
{ "type": "Feature", "properties": { "CVEGEO": "290250023007A800", "CVE_ENT": "29", "CVE_MUN": "025", "CVE_LOC": "0023", "CVE_AGEB": "007A", "NOMGEO": "Arcotitla" }, "geometry": { "type": "Point", "coordinates": [ -98.139035509999957, 19.143042309999124 ] } },
{ "type": "Feature", "properties": { "CVEGEO": "290250028007A800", "CVE_ENT": "29", "CVE_MUN": "025", "CVE_LOC": "0028", "CVE_AGEB": "007A", "NOMGEO": "Ocoilacas" }, "geometry": { "type": "Point", "coordinates": [ -98.142368922999978, 19.157208245999101 ] } },
{ "type": "Feature", "properties": { "CVEGEO": "290250047007A800", "CVE_ENT": "29", "CVE_MUN": "025", "CVE_LOC": "0047", "CVE_AGEB": "007A", "NOMGEO": "Xalpatlaco" }, "geometry": { "type": "Point", "coordinates": [ -98.113511322999912, 19.154399368999101 ] } },
{ "type": "Feature", "properties": { "CVEGEO": "290250029007A800", "CVE_ENT": "29", "CVE_MUN": "025", "CVE_LOC": "0029", "CVE_AGEB": "007A", "NOMGEO": "San José Tecosahuatla" }, "geometry": { "type": "Point", "coordinates": [ -98.150424614999935, 19.153597307999092 ] } },
{ "type": "Feature", "properties": { "CVEGEO": "290250030007A800", "CVE_ENT": "29", "CVE_MUN": "025", "CVE_LOC": "0030", "CVE_AGEB": "007A", "NOMGEO": "Xahuentepizila" }, "geometry": { "type": "Point", "coordinates": [ -98.156583549999908, 19.147397059999122 ] } },
{ "type": "Feature", "properties": { "CVEGEO": "290250035007A800", "CVE_ENT": "29", "CVE_MUN": "025", "CVE_LOC": "0035", "CVE_AGEB": "007A", "NOMGEO": "Hueypresa" }, "geometry": { "type": "Point", "coordinates": [ -98.146766369999938, 19.154020679999118 ] } },
{ "type": "Feature", "properties": { "CVEGEO": "290250036007A800", "CVE_ENT": "29", "CVE_MUN": "025", "CVE_LOC": "0036", "CVE_AGEB": "007A", "NOMGEO": "Hueyrastrujo" }, "geometry": { "type": "Point", "coordinates": [ -98.111911749999948, 19.177532489999113 ] } },
{ "type": "Feature", "properties": { "CVEGEO": "290250037007A800", "CVE_ENT": "29", "CVE_MUN": "025", "CVE_LOC": "0037", "CVE_AGEB": "007A", "NOMGEO": "Llepazotla" }, "geometry": { "type": "Point", "coordinates": [ -98.138300845999893, 19.168513076999115 ] } },
{ "type": "Feature", "properties": { "CVEGEO": "290250039007A800", "CVE_ENT": "29", "CVE_MUN": "025", "CVE_LOC": "0039", "CVE_AGEB": "007A", "NOMGEO": "Papanasno" }, "geometry": { "type": "Point", "coordinates": [ -98.109503984999904, 19.186424368999159 ] } },
{ "type": "Feature", "properties": { "CVEGEO": "290250041007A800", "CVE_ENT": "29", "CVE_MUN": "025", "CVE_LOC": "0041", "CVE_AGEB": "007A", "NOMGEO": "Rancho Escondido" }, "geometry": { "type": "Point", "coordinates": [ -98.125087229999949, 19.159536169999114 ] } },
{ "type": "Feature", "properties": { "CVEGEO": "290250042007A800", "CVE_ENT": "29", "CVE_MUN": "025", "CVE_LOC": "0042", "CVE_AGEB": "007A", "NOMGEO": "Sais" }, "geometry": { "type": "Point", "coordinates": [ -98.115095509999904, 19.186003999999112 ] } },
{ "type": "Feature", "properties": { "CVEGEO": "290250043007A800", "CVE_ENT": "29", "CVE_MUN": "025", "CVE_LOC": "0043", "CVE_AGEB": "007A", "NOMGEO": "Tecamachal" }, "geometry": { "type": "Point", "coordinates": [ -98.147772107999927, 19.145803645999138 ] } },
{ "type": "Feature", "properties": { "CVEGEO": "290250044007A800", "CVE_ENT": "29", "CVE_MUN": "025", "CVE_LOC": "0044", "CVE_AGEB": "007A", "NOMGEO": "Tectepetla" }, "geometry": { "type": "Point", "coordinates": [ -98.141691784999935, 19.149977076999146 ] } },
{ "type": "Feature", "properties": { "CVEGEO": "290250006007A800", "CVE_ENT": "29", "CVE_MUN": "025", "CVE_LOC": "0006", "CVE_AGEB": "007A", "NOMGEO": "Acopilco" }, "geometry": { "type": "Point", "coordinates": [ -98.192023649999925, 19.128122749999115 ] } },
{ "type": "Feature", "properties": { "CVEGEO": "290250009007A800", "CVE_ENT": "29", "CVE_MUN": "025", "CVE_LOC": "0009", "CVE_AGEB": "007A", "NOMGEO": "Ocopipila" }, "geometry": { "type": "Point", "coordinates": [ -98.172186139999937, 19.142074629999094 ] } },
{ "type": "Feature", "properties": { "CVEGEO": "2903000740031800", "CVE_ENT": "29", "CVE_MUN": "030", "CVE_LOC": "0074", "CVE_AGEB": "0031", "NOMGEO": "Tlacaxolo" }, "geometry": { "type": "Point", "coordinates": [ -97.94626086199996, 19.513272814999137 ] } },
{ "type": "Feature", "properties": { "CVEGEO": "2903000120046800", "CVE_ENT": "29", "CVE_MUN": "030", "CVE_LOC": "0012", "CVE_AGEB": "0046", "NOMGEO": "El Capulín [Rancho]" }, "geometry": { "type": "Point", "coordinates": [ -97.904092, 19.453227445999097 ] } },
{ "type": "Feature", "properties": { "CVEGEO": "2903000800031800", "CVE_ENT": "29", "CVE_MUN": "030", "CVE_LOC": "0080", "CVE_AGEB": "0031", "NOMGEO": "Rancho Puerta Colorada" }, "geometry": { "type": "Point", "coordinates": [ -97.917259522999942, 19.519837768999139 ] } },
{ "type": "Feature", "properties": { "CVEGEO": "2903000840031800", "CVE_ENT": "29", "CVE_MUN": "030", "CVE_LOC": "0084", "CVE_AGEB": "0031", "NOMGEO": "San Miguel [Rancho]" }, "geometry": { "type": "Point", "coordinates": [ -97.917313553999961, 19.473540814999122 ] } },
{ "type": "Feature", "properties": { "CVEGEO": "2903000850046800", "CVE_ENT": "29", "CVE_MUN": "030", "CVE_LOC": "0085", "CVE_AGEB": "0046", "NOMGEO": "Los Ameles [Rancho]" }, "geometry": { "type": "Point", "coordinates": [ -97.899105614999911, 19.458561876999077 ] } },
{ "type": "Feature", "properties": { "CVEGEO": "2903000870031800", "CVE_ENT": "29", "CVE_MUN": "030", "CVE_LOC": "0087", "CVE_AGEB": "0031", "NOMGEO": "San Isidro [Rancho]" }, "geometry": { "type": "Point", "coordinates": [ -97.9154676, 19.514916861999129 ] } },
{ "type": "Feature", "properties": { "CVEGEO": "2903000910031800", "CVE_ENT": "29", "CVE_MUN": "030", "CVE_LOC": "0091", "CVE_AGEB": "0031", "NOMGEO": "Santa Lucía (La Ascensión) [Rancho]" }, "geometry": { "type": "Point", "coordinates": [ -97.906586119999972, 19.516845509999175 ] } },
{ "type": "Feature", "properties": { "CVEGEO": "2903000920031800", "CVE_ENT": "29", "CVE_MUN": "030", "CVE_LOC": "0092", "CVE_AGEB": "0031", "NOMGEO": "La Galera" }, "geometry": { "type": "Point", "coordinates": [ -97.940418568999931, 19.474774061999163 ] } },
{ "type": "Feature", "properties": { "CVEGEO": "2903000940031800", "CVE_ENT": "29", "CVE_MUN": "030", "CVE_LOC": "0094", "CVE_AGEB": "0031", "NOMGEO": "El Palomar [Rancho]" }, "geometry": { "type": "Point", "coordinates": [ -97.906356199999934, 19.521214507999137 ] } },
{ "type": "Feature", "properties": { "CVEGEO": "2903000950031800", "CVE_ENT": "29", "CVE_MUN": "030", "CVE_LOC": "0095", "CVE_AGEB": "0031", "NOMGEO": "El Capulín [Rancho]" }, "geometry": { "type": "Point", "coordinates": [ -97.9146776899999, 19.525937939999132 ] } },
{ "type": "Feature", "properties": { "CVEGEO": "2903000960031800", "CVE_ENT": "29", "CVE_MUN": "030", "CVE_LOC": "0096", "CVE_AGEB": "0031", "NOMGEO": "Rancho Guadalupe" }, "geometry": { "type": "Point", "coordinates": [ -97.9138443399999, 19.526771229999177 ] } },
{ "type": "Feature", "properties": { "CVEGEO": "2903001040031800", "CVE_ENT": "29", "CVE_MUN": "030", "CVE_LOC": "0104", "CVE_AGEB": "0031", "NOMGEO": "La Loma" }, "geometry": { "type": "Point", "coordinates": [ -97.862054799999925, 19.475844291999131 ] } },
{ "type": "Feature", "properties": { "CVEGEO": "2903001490046800", "CVE_ENT": "29", "CVE_MUN": "030", "CVE_LOC": "0149", "CVE_AGEB": "0046", "NOMGEO": "Paso Hondo" }, "geometry": { "type": "Point", "coordinates": [ -97.910764139999941, 19.467696459999164 ] } },
{ "type": "Feature", "properties": { "CVEGEO": "2903001500046800", "CVE_ENT": "29", "CVE_MUN": "030", "CVE_LOC": "0150", "CVE_AGEB": "0046", "NOMGEO": "El Cristo [Rancho]" }, "geometry": { "type": "Point", "coordinates": [ -97.936530214999905, 19.456468168999155 ] } },
{ "type": "Feature", "properties": { "CVEGEO": "2903001510046800", "CVE_ENT": "29", "CVE_MUN": "030", "CVE_LOC": "0151", "CVE_AGEB": "0046", "NOMGEO": "Sabas de Fermín Altamirano (La Cañada)" }, "geometry": { "type": "Point", "coordinates": [ -97.892431353999925, 19.463168476999144 ] } },
{ "type": "Feature", "properties": { "CVEGEO": "2903000420027800", "CVE_ENT": "29", "CVE_MUN": "030", "CVE_LOC": "0042", "CVE_AGEB": "0027", "NOMGEO": "Tenexac" }, "geometry": { "type": "Point", "coordinates": [ -97.980019749999911, 19.490450969999138 ] } },
{ "type": "Feature", "properties": { "CVEGEO": "2903000440046800", "CVE_ENT": "29", "CVE_MUN": "030", "CVE_LOC": "0044", "CVE_AGEB": "0046", "NOMGEO": "Rancho Tepeyahualco" }, "geometry": { "type": "Point", "coordinates": [ -97.937143849999941, 19.43791984999914 ] } },
{ "type": "Feature", "properties": { "CVEGEO": "2903000450031800", "CVE_ENT": "29", "CVE_MUN": "030", "CVE_LOC": "0045", "CVE_AGEB": "0031", "NOMGEO": "Tlalmotoca" }, "geometry": { "type": "Point", "coordinates": [ -97.919398319999928, 19.524277649999149 ] } },
{ "type": "Feature", "properties": { "CVEGEO": "2903000540031800", "CVE_ENT": "29", "CVE_MUN": "030", "CVE_LOC": "0054", "CVE_AGEB": "0031", "NOMGEO": "Comunidad Cuatro Caminos (El Rosario)" }, "geometry": { "type": "Point", "coordinates": [ -97.886290479999914, 19.519056979999171 ] } },
{ "type": "Feature", "properties": { "CVEGEO": "2903000630031800", "CVE_ENT": "29", "CVE_MUN": "030", "CVE_LOC": "0063", "CVE_AGEB": "0031", "NOMGEO": "La Mesa (La Cumbre) [Rancho]" }, "geometry": { "type": "Point", "coordinates": [ -97.894896649999922, 19.505215029999107 ] } },
{ "type": "Feature", "properties": { "CVEGEO": "2903000700046800", "CVE_ENT": "29", "CVE_MUN": "030", "CVE_LOC": "0070", "CVE_AGEB": "0046", "NOMGEO": "La Presa [Rancho]" }, "geometry": { "type": "Point", "coordinates": [ -97.902163553999955, 19.456981122999153 ] } },
{ "type": "Feature", "properties": { "CVEGEO": "2903000730031800", "CVE_ENT": "29", "CVE_MUN": "030", "CVE_LOC": "0073", "CVE_AGEB": "0031", "NOMGEO": "Santa Ana [Rancho]" }, "geometry": { "type": "Point", "coordinates": [ -97.875128849999939, 19.467493749999168 ] } },
{ "type": "Feature", "properties": { "CVEGEO": "2903000760031800", "CVE_ENT": "29", "CVE_MUN": "030", "CVE_LOC": "0076", "CVE_AGEB": "0031", "NOMGEO": "Rancho Viejo" }, "geometry": { "type": "Point", "coordinates": [ -97.888975814999966, 19.466352522999141 ] } },
{ "type": "Feature", "properties": { "CVEGEO": "2903000770046800", "CVE_ENT": "29", "CVE_MUN": "030", "CVE_LOC": "0077", "CVE_AGEB": "0046", "NOMGEO": "La Candelaria [Rancho]" }, "geometry": { "type": "Point", "coordinates": [ -97.918661553999939, 19.46675253799912 ] } },
{ "type": "Feature", "properties": { "CVEGEO": "2903001090031800", "CVE_ENT": "29", "CVE_MUN": "030", "CVE_LOC": "0109", "CVE_AGEB": "0031", "NOMGEO": "Las Sabinas [Rancho]" }, "geometry": { "type": "Point", "coordinates": [ -97.877299091999944, 19.47005169199911 ] } },
{ "type": "Feature", "properties": { "CVEGEO": "2903001110027800", "CVE_ENT": "29", "CVE_MUN": "030", "CVE_LOC": "0111", "CVE_AGEB": "0027", "NOMGEO": "San Nicolás Pitzocales" }, "geometry": { "type": "Point", "coordinates": [ -98.029687553999921, 19.512416076999152 ] } },
{ "type": "Feature", "properties": { "CVEGEO": "2903001120046800", "CVE_ENT": "29", "CVE_MUN": "030", "CVE_LOC": "0112", "CVE_AGEB": "0046", "NOMGEO": "La Cañada" }, "geometry": { "type": "Point", "coordinates": [ -97.959603445999946, 19.423437984999143 ] } },
{ "type": "Feature", "properties": { "CVEGEO": "2903001130031800", "CVE_ENT": "29", "CVE_MUN": "030", "CVE_LOC": "0113", "CVE_AGEB": "0031", "NOMGEO": "Clemente Fernández" }, "geometry": { "type": "Point", "coordinates": [ -97.906245753999912, 19.516236614999126 ] } },
{ "type": "Feature", "properties": { "CVEGEO": "2903001180046800", "CVE_ENT": "29", "CVE_MUN": "030", "CVE_LOC": "0118", "CVE_AGEB": "0046", "NOMGEO": "El Dorado [Rancho]" }, "geometry": { "type": "Point", "coordinates": [ -97.9593808, 19.422028909999149 ] } },
{ "type": "Feature", "properties": { "CVEGEO": "2903001200046800", "CVE_ENT": "29", "CVE_MUN": "030", "CVE_LOC": "0120", "CVE_AGEB": "0046", "NOMGEO": "Granjas SARH" }, "geometry": { "type": "Point", "coordinates": [ -97.9809587699999, 19.477834449999126 ] } },
{ "type": "Feature", "properties": { "CVEGEO": "2903001210031800", "CVE_ENT": "29", "CVE_MUN": "030", "CVE_LOC": "0121", "CVE_AGEB": "0031", "NOMGEO": "El Ocote (Las Pozas) [Rancho]" }, "geometry": { "type": "Point", "coordinates": [ -97.912543339999914, 19.480878619999132 ] } },
{ "type": "Feature", "properties": { "CVEGEO": "2903001240046800", "CVE_ENT": "29", "CVE_MUN": "030", "CVE_LOC": "0124", "CVE_AGEB": "0046", "NOMGEO": "Los Capulines [Rancho]" }, "geometry": { "type": "Point", "coordinates": [ -97.942492414999933, 19.443864491999136 ] } },
{ "type": "Feature", "properties": { "CVEGEO": "2903001290031800", "CVE_ENT": "29", "CVE_MUN": "030", "CVE_LOC": "0129", "CVE_AGEB": "0031", "NOMGEO": "El Mirador" }, "geometry": { "type": "Point", "coordinates": [ -97.887461719999948, 19.527104799999158 ] } },
{ "type": "Feature", "properties": { "CVEGEO": "2903000140031800", "CVE_ENT": "29", "CVE_MUN": "030", "CVE_LOC": "0014", "CVE_AGEB": "0031", "NOMGEO": "Carpintería (El Carpintero)" }, "geometry": { "type": "Point", "coordinates": [ -97.927017629999952, 19.519516799999167 ] } },
{ "type": "Feature", "properties": { "CVEGEO": "2903000150031800", "CVE_ENT": "29", "CVE_MUN": "030", "CVE_LOC": "0015", "CVE_AGEB": "0031", "NOMGEO": "Cerrito de Guadalupe" }, "geometry": { "type": "Point", "coordinates": [ -97.911016579999952, 19.478509029999135 ] } },
{ "type": "Feature", "properties": { "CVEGEO": "2903000160031800", "CVE_ENT": "29", "CVE_MUN": "030", "CVE_LOC": "0016", "CVE_AGEB": "0031", "NOMGEO": "La Colonia [Rancho]" }, "geometry": { "type": "Point", "coordinates": [ -97.905277539999943, 19.518753999999117 ] } },
{ "type": "Feature", "properties": { "CVEGEO": "2903000170031800", "CVE_ENT": "29", "CVE_MUN": "030", "CVE_LOC": "0017", "CVE_AGEB": "0031", "NOMGEO": "Cortesco" }, "geometry": { "type": "Point", "coordinates": [ -97.905791779999916, 19.469928709999106 ] } },
{ "type": "Feature", "properties": { "CVEGEO": "2903000310046800", "CVE_ENT": "29", "CVE_MUN": "030", "CVE_LOC": "0031", "CVE_AGEB": "0046", "NOMGEO": "La Noria [Rancho]" }, "geometry": { "type": "Point", "coordinates": [ -97.936374509999908, 19.473642449999112 ] } },
{ "type": "Feature", "properties": { "CVEGEO": "2903000330031800", "CVE_ENT": "29", "CVE_MUN": "030", "CVE_LOC": "0033", "CVE_AGEB": "0031", "NOMGEO": "El Pilancón" }, "geometry": { "type": "Point", "coordinates": [ -97.905884549999897, 19.503354889999098 ] } },
{ "type": "Feature", "properties": { "CVEGEO": "2903000350031800", "CVE_ENT": "29", "CVE_MUN": "030", "CVE_LOC": "0035", "CVE_AGEB": "0031", "NOMGEO": "El Rincón [Ranchería]" }, "geometry": { "type": "Point", "coordinates": [ -97.901465709999954, 19.492425229999103 ] } },
{ "type": "Feature", "properties": { "CVEGEO": "2903000360031800", "CVE_ENT": "29", "CVE_MUN": "030", "CVE_LOC": "0036", "CVE_AGEB": "0031", "NOMGEO": "La Rosa [Rancho]" }, "geometry": { "type": "Point", "coordinates": [ -97.908963953999915, 19.52497412299914 ] } },
{ "type": "Feature", "properties": { "CVEGEO": "2903000790031800", "CVE_ENT": "29", "CVE_MUN": "030", "CVE_LOC": "0079", "CVE_AGEB": "0031", "NOMGEO": "San Pedro de Guadalupe" }, "geometry": { "type": "Point", "coordinates": [ -97.921186619999929, 19.533774909999131 ] } },
{ "type": "Feature", "properties": { "CVEGEO": "2903001060031800", "CVE_ENT": "29", "CVE_MUN": "030", "CVE_LOC": "0106", "CVE_AGEB": "0031", "NOMGEO": "La Pera" }, "geometry": { "type": "Point", "coordinates": [ -97.881442109999924, 19.464965569999183 ] } },